X,Y,OBJECTID,EPAID,SITENAME,SITEADDR,SITECITY,SITECOUNTY,LATITUDE,LONGITUDE,source,GEOLOC_COD,STATUS,PRO_CONTAC,PHONE,EMAIL,NFA_RESTRI,Update_Dat,Doc_Link
-78.665671,35.071451,3268,NONCD0000375,Stedman Landfill,Page Road,Stedman,Cumberland,35.071451,-78.665671,ESRI AGOL BASE MAP,31,Remediation,Brian Wright,919-508-7126,brian.wright@ncdenr.gov,TRUE,2023/09/11 00:00:00+00,https://edocs.deq.nc.gov/WasteManagement/Search.aspx?dbid=0&searchcommand={[WM]:[Program_ID]=%22*NONCD0000375*%22}
-82.825777,35.5265650000001,3269,NONCD0000813,reynold's school road,reynold's school road,canton,HAYWOOD,35.526565,-82.825777,ESRI AGOL BASE MAP,31,Remediation,Jason Kam,919-707-8346,jason.kam@ncdenr.gov,TRUE,2023/09/11 00:00:00+00,https://edocs.deq.nc.gov/WasteManagement/Search.aspx?dbid=0&searchcommand={[WM]:[Program_ID]=%22*NONCD0000813*%22}
-78.669111,35.838112,3270,NCD980845903,Old Raleigh #9-Howard Johnson Crabtree,2102 CENTURY DRIVE,RALEIGH,WAKE,35.838112,-78.669111,ESRI AGOL BASE MAP,31,Investigation,Jason Kam,919-707-8346,jason.kam@ncdenr.gov,TRUE,2023/09/11 00:00:00+00,https://edocs.deq.nc.gov/WasteManagement/Search.aspx?dbid=0&searchcommand={[WM]:[Program_ID]=%22*NCD980845903*%22}
-82.720782,35.5147420000001,3271,NONCD0000682,BUNCOMBE CO LF/E CANTON LF/OLD CHANDLER LF,Little Piney Rd,Enka,BUNCOMBE,35.514742,-82.720782,ESRI AGOL BASE MAP,31,No Further Action,PRLF Unit Supervisor,919-707-8333,ryan.channell@ncdenr.gov,TRUE,2023/09/11 00:00:00+00,https://edocs.deq.nc.gov/WasteManagement/Search.aspx?dbid=0&searchcommand={[WM]:[Program_ID]=%22*NONCD0000682*%22}
-82.365323,35.519842,3272,NCD980557946,Fairview Landfill,Hollywood Rd.,Fairview,Buncombe,35.519842,-82.365323,ESRI AGOL BASE MAP,31,No Further Action,PRLF Unit Supervisor,919-707-8333,ryan.channell@ncdenr.gov,TRUE,2023/09/11 00:00:00+00,https://edocs.deq.nc.gov/WasteManagement/Search.aspx?dbid=0&searchcommand={[WM]:[Program_ID]=%22*NCD980557946*%22}
-81.440978,35.728034,3273,NONCD0000170,Hildebran Disposal Area,Tex's Fish Camp Rd,HILDEBRAN,Burke,35.728034,-81.440978,ESRI AGOL BASE MAP,31,No Further Action,PRLF Unit Supervisor,919-707-8333,ryan.channell@ncdenr.gov,TRUE,2023/09/11 00:00:00+00,https://edocs.deq.nc.gov/WasteManagement/Search.aspx?dbid=0&searchcommand={[WM]:[Program_ID]=%22*NONCD0000170*%22}
-78.837326,34.904815,3274,NONCD0000741,Cumberland County Landfill,Smokey Canyon Dr.,Hope Mills,Cumberland,34.904815,-78.837326,ESRI AGOL BASE MAP,31,No Further Action,PRLF Unit Supervisor,919-707-8333,ryan.channell@ncdenr.gov,TRUE,2023/09/11 00:00:00+00,https://edocs.deq.nc.gov/WasteManagement/Search.aspx?dbid=0&searchcommand={[WM]:[Program_ID]=%22*NONCD0000741*%22}
-80.221784,36.136717,3275,NONCD0000307,Airport Landfill,Airport Rd,Winston-Salem,Forsyth,36.136717,-80.221784,ESRI AGOL BASE MAP,31,No Further Action,PRLF Unit Supervisor,919-707-8333,ryan.channell@ncdenr.gov,TRUE,2023/09/11 00:00:00+00,https://edocs.deq.nc.gov/WasteManagement/Search.aspx?dbid=0&searchcommand={[WM]:[Program_ID]=%22*NONCD0000307*%22}
-80.2389929999999,36.083806,3276,NONCD0000782,CENTRAL PARK LDFL,S MAIN & SALEM AVE,WINSTON-SALEM,FORSYTH,36.083806,-80.238993,ESRI AGOL BASE MAP,31,No Further Action,PRLF Unit Supervisor,919-707-8333,ryan.channell@ncdenr.gov,TRUE,2023/09/11 00:00:00+00,https://edocs.deq.nc.gov/WasteManagement/Search.aspx?dbid=0&searchcommand={[WM]:[Program_ID]=%22*NONCD0000782*%22}
-81.063679,35.2595150000001,3277,NONCD0000318,Mcadenville Dump,McAdenville Rd,McAdenville,Gaston,35.259515,-81.063679,ESRI AGOL BASE MAP,31,No Further Action,PRLF Unit Supervisor,919-707-8333,ryan.channell@ncdenr.gov,TRUE,2023/09/11 00:00:00+00,https://edocs.deq.nc.gov/WasteManagement/Search.aspx?dbid=0&searchcommand={[WM]:[Program_ID]=%22*NONCD0000318*%22}
-77.908284,36.451943,3278,NONCD0000339,Littleton Dump,Hackett Street,LITTLETON,Halifax,36.451943,-77.908284,ESRI AGOL BASE MAP,31,No Further Action,PRLF Unit Supervisor,919-707-8333,ryan.channell@ncdenr.gov,TRUE,2023/09/11 00:00:00+00,https://edocs.deq.nc.gov/WasteManagement/Search.aspx?dbid=0&searchcommand={[WM]:[Program_ID]=%22*NONCD0000339*%22}
-79.143224,34.9533870000001,3279,NONCD0000363,Clyde Leach Dump,Aspen Loop,Arabia,Hoke,34.953387,-79.143224,ESRI AGOL BASE MAP,31,No Further Action,PRLF Unit Supervisor,919-707-8333,ryan.channell@ncdenr.gov,TRUE,2023/09/11 00:00:00+00,https://edocs.deq.nc.gov/WasteManagement/Search.aspx?dbid=0&searchcommand={[WM]:[Program_ID]=%22*NONCD0000363*%22}
-80.840312,35.2556080000001,3280,NONCD0000806,Double Oaks Landfill,Double Oaks Rd,Charlotte,MECKLENBURG,35.255608,-80.840312,ESRI AGOL BASE MAP,31,No Further Action,PRLF Unit Supervisor,919-707-8333,ryan.channell@ncdenr.gov,TRUE,2023/09/11 00:00:00+00,https://edocs.deq.nc.gov/WasteManagement/Search.aspx?dbid=0&searchcommand={[WM]:[Program_ID]=%22*NONCD0000806*%22}
-78.1007,35.938449,3281,NONCD0000452,Spring Hope Dump,"NC 581, CP&L pole ZWH214",SPRING HOPE,Nash,35.938449,-78.1007,ESRI AGOL BASE MAP,31,No Further Action,PRLF Unit Supervisor,919-707-8333,ryan.channell@ncdenr.gov,TRUE,2023/09/11 00:00:00+00,https://edocs.deq.nc.gov/WasteManagement/Search.aspx?dbid=0&searchcommand={[WM]:[Program_ID]=%22*NONCD0000452*%22}
-77.967569,34.276576,3282,NCD980503056,Flemington LF,205 Sutton Steam Plant Road,Wilmington,New Hanover,34.276576,-77.967569,ESRI AGOL BASE MAP,31,No Further Action,PRLF Unit Supervisor,919-707-8333,ryan.channell@ncdenr.gov,TRUE,2023/09/11 00:00:00+00,https://edocs.deq.nc.gov/WasteManagement/Search.aspx?dbid=0&searchcommand={[WM]:[Program_ID]=%22*NCD980503056*%22}
-82.126097,35.2398440000001,3283,NONCD0001056,Little Mountain LDFL,SR 1522 - Little Mt. Rd.,Columbus,Polk,35.239844,-82.126097,ESRI AGOL BASE MAP,31,No Further Action,PRLF Unit Supervisor,919-707-8333,ryan.channell@ncdenr.gov,TRUE,2023/09/11 00:00:00+00,https://edocs.deq.nc.gov/WasteManagement/Search.aspx?dbid=0&searchcommand={[WM]:[Program_ID]=%22*NONCD0001056*%22}
-80.6283349999999,35.5104180000001,3284,NCD003162666,Cannon Mills Landfill,614 8th street,Kannapolis,Rowan,35.510418,-80.628335,ESRI AGOL BASE MAP,31,No Further Action,PRLF Unit Supervisor,919-707-8333,ryan.channell@ncdenr.gov,TRUE,2023/09/11 00:00:00+00,https://edocs.deq.nc.gov/WasteManagement/Search.aspx?dbid=0&searchcommand={[WM]:[Program_ID]=%22*NCD003162666*%22}
-82.191404,35.407202,3285,NONCD0000552,Lake Lure Dump,Island Creek Rd.,Lake Lure,Rutherford,35.407202,-82.191404,ESRI AGOL BASE MAP,31,No Further Action,PRLF Unit Supervisor,919-707-8333,ryan.channell@ncdenr.gov,TRUE,2023/09/11 00:00:00+00,https://edocs.deq.nc.gov/WasteManagement/Search.aspx?dbid=0&searchcommand={[WM]:[Program_ID]=%22*NONCD0000552*%22}
-81.778635,35.262396,3286,NONCD0000544,Cliffside Mill Dump,Pea Ridge Rd. (SR 1960),Mooresboro,Rutherford,35.262396,-81.778635,ESRI AGOL BASE MAP,31,No Further Action,PRLF Unit Supervisor,919-707-8333,ryan.channell@ncdenr.gov,TRUE,2023/09/11 00:00:00+00,https://edocs.deq.nc.gov/WasteManagement/Search.aspx?dbid=0&searchcommand={[WM]:[Program_ID]=%22*NONCD0000544*%22}
-82.7548409999999,35.210875,3287,NONCD0000208,Brevard Dump,Illahee Point (SR 1124),Brevard,Transylvania,35.210875,-82.754841,ESRI AGOL BASE MAP,31,No Further Action,PRLF Unit Supervisor,919-707-8333,ryan.channell@ncdenr.gov,TRUE,2023/09/11 00:00:00+00,https://edocs.deq.nc.gov/WasteManagement/Search.aspx?dbid=0&searchcommand={[WM]:[Program_ID]=%22*NONCD0000208*%22}
-78.417223,36.3563500000001,3288,NONCD0001001,CLOSED CITY OF HENDERSON LDFL,NC 39,HENDERSON,Vance,36.35635,-78.417223,ESRI AGOL BASE MAP,31,No Further Action,PRLF Unit Supervisor,919-707-8333,ryan.channell@ncdenr.gov,TRUE,2023/09/11 00:00:00+00,https://edocs.deq.nc.gov/WasteManagement/Search.aspx?dbid=0&searchcommand={[WM]:[Program_ID]=%22*NONCD0001001*%22}
-78.623476,35.7977760000001,3289,NONCD0000686,OLD RALEIGH LF #3,1408 BROOKSIDE RD,RALEIGH,WAKE,35.797776,-78.623476,ESRI AGOL BASE MAP,31,No Further Action,PRLF Unit Supervisor,919-707-8333,ryan.channell@ncdenr.gov,TRUE,2023/09/11 00:00:00+00,https://edocs.deq.nc.gov/WasteManagement/Search.aspx?dbid=0&searchcommand={[WM]:[Program_ID]=%22*NONCD0000686*%22}
-78.830238,35.83025,3290,NONCD0000696,WALTON'S SANITATION SERVICE DUMP,580 CHURCH ST,MORRISVILLE,WAKE,35.83025,-78.830238,ESRI AGOL BASE MAP,31,No Further Action,PRLF Unit Supervisor,919-707-8333,ryan.channell@ncdenr.gov,TRUE,2023/09/11 00:00:00+00,https://edocs.deq.nc.gov/WasteManagement/Search.aspx?dbid=0&searchcommand={[WM]:[Program_ID]=%22*NONCD0000696*%22}
-78.7240609999999,35.7986720000001,3291,NONCD0000607,NC Dept. of Agriculture LF,SR 1656/Trinity Rd.,Raleigh,Wake,35.798672,-78.724061,ESRI AGOL BASE MAP,31,No Further Action,PRLF Unit Supervisor,919-707-8333,ryan.channell@ncdenr.gov,TRUE,2023/09/11 00:00:00+00,https://edocs.deq.nc.gov/WasteManagement/Search.aspx?dbid=0&searchcommand={[WM]:[Program_ID]=%22*NONCD0000607*%22}
-80.9048339999999,36.1249700000001,3292,NCD981477318,Somers Road Dump,2646 Somers Road,Hamptonville,WILKES,36.12497,-80.904834,ESRI AGOL BASE MAP,31,No Further Action,PRLF Unit Supervisor,919-707-8333,ryan.channell@ncdenr.gov,TRUE,2023/09/11 00:00:00+00,https://edocs.deq.nc.gov/WasteManagement/Search.aspx?dbid=0&searchcommand={[WM]:[Program_ID]=%22*NCD981477318*%22}
-79.534845,36.0929390000001,3293,NONCD0000819,Gibsonville Properties,Alamance Street at Meadow Street,Gibsonville,ALAMANCE,36.092939,-79.534845,ESRI AGOL BASE MAP,31,No Further Action,Zi-qiang Chen,919-508-7144,zi-qiang.chen@ncdenr.gov,TRUE,2023/09/11 00:00:00+00,https://edocs.deq.nc.gov/WasteManagement/Search.aspx?dbid=0&searchcommand={[WM]:[Program_ID]=%22*NONCD0000819*%22}
-78.464279,36.089548,3294,NONCD0000310,Franklinton Dump,Parkers Way,FRANKLINTON,Franklin,36.089548,-78.464279,ESRI AGOL BASE MAP,31,No Further Action,Zi-qiang Chen,919-508-7144,zi-qiang.chen@ncdenr.gov,TRUE,2023/09/11 00:00:00+00,https://edocs.deq.nc.gov/WasteManagement/Search.aspx?dbid=0&searchcommand={[WM]:[Program_ID]=%22*NONCD0000310*%22}
-79.084279,34.685233,3295,NONCD0000712,City of Lumberton LDFL,Odum Road (SR 1526),Lumberton,Robeson,34.685233,-79.084279,ESRI AGOL BASE MAP,31,No Further Action,Zi-qiang Chen,919-508-7144,zi-qiang.chen@ncdenr.gov,TRUE,2023/09/11 00:00:00+00,https://edocs.deq.nc.gov/WasteManagement/Search.aspx?dbid=0&searchcommand={[WM]:[Program_ID]=%22*NONCD0000712*%22}
-79.38604455,36.0844088100001,3296,NONCD0000722,HANOVER RD LDFL,HANOVER RD,BURLINGTON,ALAMANCE,36.08440881,-79.38604455,,12,Investigation,Analee Thornburg,919-707-8227,analee.thornburg@ncdenr.gov,FALSE,2023/09/11 00:00:00+00,https://edocs.deq.nc.gov/WasteManagement/Search.aspx?dbid=0&searchcommand={[WM]:[Program_ID]=%22*NONCD0000722*%22}
-79.056611,35.044046,3297,NCD980502900,Cumberland County/Cliffdale LF,7583 Lowell Harris Road,Fayetteville,Cumberland,35.044046,-79.056611,ESRI AGOL BASE MAP,31,Investigation,Analee Thornburg,919-707-8227,analee.thornburg@ncdenr.gov,FALSE,2023/09/11 00:00:00+00,https://edocs.deq.nc.gov/WasteManagement/Search.aspx?dbid=0&searchcommand={[WM]:[Program_ID]=%22*NCD980502900*%22}
-80.887301,35.1652250000001,3298,NONCD0001065,OLD CHARLOTTE LDFL/ VANGUARD CENTER,77 CENTER,CHARLOTTE,MECKLENBURG,35.165225,-80.887301,ESRI AGOL BASE MAP,31,Investigation,Analee Thornburg,919-707-8227,analee.thornburg@ncdenr.gov,FALSE,2023/09/11 00:00:00+00,https://edocs.deq.nc.gov/WasteManagement/Search.aspx?dbid=0&searchcommand={[WM]:[Program_ID]=%22*NONCD0001065*%22}
-79.41286,35.171254,3299,NONCD0000762,Southern Pines Dump,West Morganton Rd.,Southern Pines,Moore,35.171254,-79.41286,GOOGLE MAPS,31,Investigation,Analee Thornburg,919-707-8227,analee.thornburg@ncdenr.gov,FALSE,2023/09/11 00:00:00+00,https://edocs.deq.nc.gov/WasteManagement/Search.aspx?dbid=0&searchcommand={[WM]:[Program_ID]=%22*NONCD0000762*%22}
-77.65296361,36.5267462900001,3300,NONCD0000475,Gaston Refuse Disposal,Porch Drive (SR 1219),Gaston,Northampton,36.52674629,-77.65296361,,12,Investigation,Analee Thornburg,919-707-8227,analee.thornburg@ncdenr.gov,FALSE,2023/09/11 00:00:00+00,https://edocs.deq.nc.gov/WasteManagement/Search.aspx?dbid=0&searchcommand={[WM]:[Program_ID]=%22*NONCD0000475*%22}
-77.95835364,34.55432453,3301,NONCD0000490,Burgaw Dump,Piney Woods Rd. (SR 1216),Burgaw,Pender,34.55432453,-77.95835364,,12,Investigation,Analee Thornburg,919-707-8227,analee.thornburg@ncdenr.gov,FALSE,2023/09/11 00:00:00+00,https://edocs.deq.nc.gov/WasteManagement/Search.aspx?dbid=0&searchcommand={[WM]:[Program_ID]=%22*NONCD0000490*%22}
-78.11384,34.1445430000001,3302,NONCD0000151,Winnabow Landfill,5719 BELMONT ROAD NE,WINNABOW,Brunswick,34.144543,-78.11384,ESRI AGOL BASE MAP,31,Investigation,Brian Wright,919-508-7126,brian.wright@ncdenr.gov,FALSE,2023/09/11 00:00:00+00,https://edocs.deq.nc.gov/WasteManagement/Search.aspx?dbid=0&searchcommand={[WM]:[Program_ID]=%22*NONCD0000151*%22}
-82.3871313399999,35.5978322600001,3303,NCD980557987,Swannanoa Landfill,Mountain Ridge Rd.,Swannanoa,Buncombe,35.59783226,-82.38713134,,12,Investigation,Brian Wright,919-508-7126,brian.wright@ncdenr.gov,FALSE,2023/09/11 00:00:00+00,https://edocs.deq.nc.gov/WasteManagement/Search.aspx?dbid=0&searchcommand={[WM]:[Program_ID]=%22*NCD980557987*%22}
-82.527591,35.452616,3304,NCD980557953,Fishburne Landfill,39 Bradley Branch Rd.,Arden,Buncombe,35.452616,-82.527591,ESRI AGOL BASE MAP,31,Investigation,Brian Wright,919-508-7126,brian.wright@ncdenr.gov,FALSE,2023/09/11 00:00:00+00,https://edocs.deq.nc.gov/WasteManagement/Search.aspx?dbid=0&searchcommand={[WM]:[Program_ID]=%22*NCD980557953*%22}
-82.385706,35.6007270000001,3305,NCD008839276,"Money-Worth, Inc.",US 70 East,Swannanoa,BUNCOMBE,35.600727,-82.385706,ESRI AGOL BASE MAP,31,Remediation,Brian Wright,919-508-7126,brian.wright@ncdenr.gov,FALSE,2023/09/11 00:00:00+00,https://edocs.deq.nc.gov/WasteManagement/Search.aspx?dbid=0&searchcommand={[WM]:[Program_ID]=%22*NCD008839276*%22}
-80.55758922,35.40027338,3306,NONCD0000802,Les Myers Park,338 lawndale Avenue Extension,Concord,CABARRUS,35.40027338,-80.55758922,,12,Investigation,Brian Wright,919-508-7126,brian.wright@ncdenr.gov,FALSE,2023/09/11 00:00:00+00,https://edocs.deq.nc.gov/WasteManagement/Search.aspx?dbid=0&searchcommand={[WM]:[Program_ID]=%22*NONCD0000802*%22}
-80.68063731,35.35287534,3307,NONCD0000182,Charlotte Motor Speedway LF#1,Lowes Motor Speedway,Concord,Cabarrus,35.35287534,-80.68063731,,12,Investigation,Brian Wright,919-508-7126,brian.wright@ncdenr.gov,FALSE,2023/09/11 00:00:00+00,https://edocs.deq.nc.gov/WasteManagement/Search.aspx?dbid=0&searchcommand={[WM]:[Program_ID]=%22*NONCD0000182*%22}
-75.684818,35.900657,3308,NONCD0000270,Manteo Dump,Sir Walter Raleigh Street,MANTEO,Dare,35.900657,-75.684818,ESRI AGOL BASE MAP,31,Investigation,Brian Wright,919-508-7126,brian.wright@ncdenr.gov,FALSE,2023/09/11 00:00:00+00,https://edocs.deq.nc.gov/WasteManagement/Search.aspx?dbid=0&searchcommand={[WM]:[Program_ID]=%22*NONCD0000270*%22}
-75.67705599,35.8988768200001,3309,NONCD0000272,Dare County Dump,138 S. California Lane,MANTEO,Dare,35.89887682,-75.67705599,,12,Investigation,Brian Wright,919-508-7126,brian.wright@ncdenr.gov,FALSE,2023/09/11 00:00:00+00,https://edocs.deq.nc.gov/WasteManagement/Search.aspx?dbid=0&searchcommand={[WM]:[Program_ID]=%22*NONCD0000272*%22}
-78.85031338,35.9458609700001,3310,NONCD0000289,Durham County Landfill,1245 WREN RD,Oak Grove Township,Durham,35.94586097,-78.85031338,,12,Investigation,Brian Wright,919-508-7126,brian.wright@ncdenr.gov,FALSE,2023/09/11 00:00:00+00,https://edocs.deq.nc.gov/WasteManagement/Search.aspx?dbid=0&searchcommand={[WM]:[Program_ID]=%22*NONCD0000289*%22}
-81.1855629999999,35.2814920000001,3311,NONCD0000766,sims legion park LF,Marietta St,gastonia,GASTON,35.281492,-81.185563,ESRI AGOL BASE MAP,31,Investigation,Brian Wright,919-508-7126,brian.wright@ncdenr.gov,FALSE,2023/09/11 00:00:00+00,https://edocs.deq.nc.gov/WasteManagement/Search.aspx?dbid=0&searchcommand={[WM]:[Program_ID]=%22*NONCD0000766*%22}
-79.76126756,36.0692198,3312,NONCD0000244,Bingham Park,400 Bingham St,Greensboro,GUILFORD,36.0692198,-79.76126756,,12,Investigation,Brian Wright,919-508-7126,brian.wright@ncdenr.gov,FALSE,2023/09/11 00:00:00+00,https://edocs.deq.nc.gov/WasteManagement/Search.aspx?dbid=0&searchcommand={[WM]:[Program_ID]=%22*NONCD0000244*%22}
-80.82641466,35.5976791800001,3313,NONCD0000376,Mooresville Dump,439 Rinehardt Rd,MOORESVILLE,Iredell,35.59767918,-80.82641466,,12,Investigation,Brian Wright,919-508-7126,brian.wright@ncdenr.gov,FALSE,2023/09/11 00:00:00+00,https://edocs.deq.nc.gov/WasteManagement/Search.aspx?dbid=0&searchcommand={[WM]:[Program_ID]=%22*NONCD0000376*%22}
-80.8302619999999,35.2684150000001,3314,NCD000605097,Statesville Rd. LF,3200 Northerly Rd.,Charlotte,Mecklenburg,35.268415,-80.830262,ESRI AGOL BASE MAP,31,Investigation,Brian Wright,919-508-7126,brian.wright@ncdenr.gov,FALSE,2023/09/11 00:00:00+00,https://edocs.deq.nc.gov/WasteManagement/Search.aspx?dbid=0&searchcommand={[WM]:[Program_ID]=%22*NCD000605097*%22}
-77.92905417,34.25417824,3315,NONCD0000695,Burnt Mill Creek LF,Stanley St.,Wilmington,New Hanover,34.25417824,-77.92905417,,12,Investigation,Brian Wright,919-508-7126,brian.wright@ncdenr.gov,FALSE,2023/09/11 00:00:00+00,https://edocs.deq.nc.gov/WasteManagement/Search.aspx?dbid=0&searchcommand={[WM]:[Program_ID]=%22*NONCD0000695*%22}
-80.514621,34.9928600000001,3316,NONCD0000599,Monroe Landfill,Richardson St.,Monroe,Union,34.99286,-80.514621,,31,Investigation,Brian Wright,919-508-7126,brian.wright@ncdenr.gov,FALSE,2023/09/11 00:00:00+00,https://edocs.deq.nc.gov/WasteManagement/Search.aspx?dbid=0&searchcommand={[WM]:[Program_ID]=%22*NONCD0000599*%22}
-78.8106491299999,35.64588522,3317,NONCD0000605,Holly Springs Dump,BASS LAKE RD,HOLLY SPRINGS,Wake,35.64588522,-78.81064913,,12,Remediation,Brian Wright,919-508-7126,brian.wright@ncdenr.gov,FALSE,2023/09/11 00:00:00+00,https://edocs.deq.nc.gov/WasteManagement/Search.aspx?dbid=0&searchcommand={[WM]:[Program_ID]=%22*NONCD0000605*%22}
-78.47269019,35.7899115000001,3318,NONCD0000603,Knightdale Dump,Robertson,KNIGHTDALE,Wake,35.7899115,-78.47269019,,12,Investigation,Brian Wright,919-508-7126,brian.wright@ncdenr.gov,FALSE,2023/09/11 00:00:00+00,https://edocs.deq.nc.gov/WasteManagement/Search.aspx?dbid=0&searchcommand={[WM]:[Program_ID]=%22*NONCD0000603*%22}
-77.9000109999999,35.734295,3319,NONCD0000674,City of Wilson Landfill-1,105 Goldsboro St. NE,Wilson,Wilson,35.734295,-77.900011,ESRI AGOL BASE MAP,31,Investigation,Brian Wright,919-508-7126,brian.wright@ncdenr.gov,FALSE,2023/09/11 00:00:00+00,https://edocs.deq.nc.gov/WasteManagement/Search.aspx?dbid=0&searchcommand={[WM]:[Program_ID]=%22*NONCD0000674*%22}
-81.43011775,35.69290562,3320,NONCD0000171,Henry River Comm. Dump,4300 Henery River Rd,Hildebran,Burke,35.69290562,-81.43011775,,12,Investigation,Jason Kam,919-707-8346,jason.kam@ncdenr.gov,FALSE,2023/09/11 00:00:00+00,https://edocs.deq.nc.gov/WasteManagement/Search.aspx?dbid=0&searchcommand={[WM]:[Program_ID]=%22*NONCD0000171*%22}
-81.42499269,35.81700762,3321,NONCD0000770,Dudley Shoals ldfl 2,621 Dudley Shoals,DUDLEY SHOALS,CALDWELL,35.81700762,-81.42499269,,12,Investigation,Jason Kam,919-707-8346,jason.kam@ncdenr.gov,FALSE,2023/09/11 00:00:00+00,https://edocs.deq.nc.gov/WasteManagement/Search.aspx?dbid=0&searchcommand={[WM]:[Program_ID]=%22*NONCD0000770*%22}
-81.28067971,35.70436384,3322,NONCD0000793,Sweetwater Road Dump,15th Ave. SE,Hickory,Catawba,35.70436384,-81.28067971,,12,Investigation,Jason Kam,919-707-8346,jason.kam@ncdenr.gov,FALSE,2023/09/11 00:00:00+00,https://edocs.deq.nc.gov/WasteManagement/Search.aspx?dbid=0&searchcommand={[WM]:[Program_ID]=%22*NONCD0000793*%22}
-75.540679,35.2663600000001,3323,NCD981750425,Buxton Dump,47646 Buxton Back Road,Buxton,Dare,35.26636,-75.540679,ESRI AGOL BASE MAP,31,Investigation,Jason Kam,919-707-8346,jason.kam@ncdenr.gov,FALSE,2023/09/11 00:00:00+00,https://edocs.deq.nc.gov/WasteManagement/Search.aspx?dbid=0&searchcommand={[WM]:[Program_ID]=%22*NCD981750425*%22}
-78.7626749999999,35.5344180000001,3324,NONCD0000349,Angier Refuse Dump,2200 Rawls Church Road (SR 1415),ANGIER,Harnett,35.534418,-78.762675,ESRI AGOL BASE MAP,31,Remediation,Jason Kam,919-707-8346,jason.kam@ncdenr.gov,FALSE,2023/09/11 00:00:00+00,https://edocs.deq.nc.gov/WasteManagement/Search.aspx?dbid=0&searchcommand={[WM]:[Program_ID]=%22*NONCD0000349*%22}
-82.45923093,35.32926867,3325,NONCD0000798,Mud Creek Dump,Lincoln Circle,Hendersonville,Henderson,35.32926867,-82.45923093,,12,Investigation,Jason Kam,919-707-8346,jason.kam@ncdenr.gov,FALSE,2023/09/11 00:00:00+00,https://edocs.deq.nc.gov/WasteManagement/Search.aspx?dbid=0&searchcommand={[WM]:[Program_ID]=%22*NONCD0000798*%22}
-80.79950007,35.9555489300001,3326,NONCD0000370,Harmony Refuse Disposal,Tomlin Rd,HARMONY,Iredell,35.95554893,-80.79950007,,12,Investigation,Jason Kam,919-707-8346,jason.kam@ncdenr.gov,FALSE,2023/09/11 00:00:00+00,https://edocs.deq.nc.gov/WasteManagement/Search.aspx?dbid=0&searchcommand={[WM]:[Program_ID]=%22*NONCD0000370*%22}
-81.0031454799999,35.5107945600001,3327,NONCD0000408,Denver Landfill,2585 North Hwy. 16,Denver,Lincoln,35.51079456,-81.00314548,,12,Investigation,Jason Kam,919-707-8346,jason.kam@ncdenr.gov,FALSE,2023/09/11 00:00:00+00,https://edocs.deq.nc.gov/WasteManagement/Search.aspx?dbid=0&searchcommand={[WM]:[Program_ID]=%22*NONCD0000408*%22}
-79.67313511,36.37624564,3328,NONCD0000537,Reidsville Landfill,Goldwater Trail,Reidsville,Rockingham,36.37624564,-79.67313511,,12,Investigation,Jason Kam,919-707-8346,jason.kam@ncdenr.gov,FALSE,2023/09/11 00:00:00+00,https://edocs.deq.nc.gov/WasteManagement/Search.aspx?dbid=0&searchcommand={[WM]:[Program_ID]=%22*NONCD0000537*%22}
-80.59026204,35.57263712,3329,NONCD0000540,China Grove Dump,Kirk Street,China Grove,Rowan,35.57263712,-80.59026204,,12,Investigation,Jason Kam,919-707-8346,jason.kam@ncdenr.gov,FALSE,2023/09/11 00:00:00+00,https://edocs.deq.nc.gov/WasteManagement/Search.aspx?dbid=0&searchcommand={[WM]:[Program_ID]=%22*NONCD0000540*%22}
-82.69119696,35.24857489,3330,NONCD0000591,Davidson River Dump,Poplar Lane,Pisgah Forest,Transylvania,35.24857489,-82.69119696,,12,Investigation,Jason Kam,919-707-8346,jason.kam@ncdenr.gov,FALSE,2023/09/11 00:00:00+00,https://edocs.deq.nc.gov/WasteManagement/Search.aspx?dbid=0&searchcommand={[WM]:[Program_ID]=%22*NONCD0000591*%22}
-80.76544752,34.90762269,3331,NONCD0000598,Waxhaw Dump,8625 Richardson-King Rd.,Waxhaw,Union,34.90762269,-80.76544752,,12,Investigation,Jason Kam,919-707-8346,jason.kam@ncdenr.gov,FALSE,2023/09/11 00:00:00+00,https://edocs.deq.nc.gov/WasteManagement/Search.aspx?dbid=0&searchcommand={[WM]:[Program_ID]=%22*NONCD0000598*%22}
-78.6627512599999,35.79960828,3332,NONCD0000688,OLD RALEIGH LF #5,2405 WADE AVE,RALEIGH,WAKE,35.79960828,-78.66275126,,12,Remediation,Jason Kam,919-707-8346,jason.kam@ncdenr.gov,FALSE,2023/09/11 00:00:00+00,https://edocs.deq.nc.gov/WasteManagement/Search.aspx?dbid=0&searchcommand={[WM]:[Program_ID]=%22*NONCD0000688*%22}
-78.5995,36.0216,3333,NONCD0000812,Mangum Estates,Ledbury Way,Wake Forest,WAKE,36.0216,-78.5995,,99,Remediation,Jason Kam,919-707-8346,jason.kam@ncdenr.gov,FALSE,2023/09/11 00:00:00+00,https://edocs.deq.nc.gov/WasteManagement/Search.aspx?dbid=0&searchcommand={[WM]:[Program_ID]=%22*NONCD0000812*%22}
-78.79051882,35.79072827,3334,NONCD0000602,Cary Dump,313 N DIXON ST,CARY,WAKE,35.79072827,-78.79051882,,12,Investigation,Jason Kam,919-707-8346,jason.kam@ncdenr.gov,FALSE,2023/09/11 00:00:00+00,https://edocs.deq.nc.gov/WasteManagement/Search.aspx?dbid=0&searchcommand={[WM]:[Program_ID]=%22*NONCD0000602*%22}
-78.6573061299999,35.77388668,3335,NONCD0000610,Old Raleigh Ldfl #11 - Dorothea Dix,DORoTHEA DIX HOSPITAL,RALEIGH,Wake,35.77388668,-78.65730613,,12,Investigation,Jason Kam,919-707-8346,jason.kam@ncdenr.gov,FALSE,2023/09/11 00:00:00+00,https://edocs.deq.nc.gov/WasteManagement/Search.aspx?dbid=0&searchcommand={[WM]:[Program_ID]=%22*NONCD0000610*%22}
-81.1155003699999,36.4908278,3336,NONCD0000113,Old Alleghany County LF,Southside Dr,SPARTA,Alleghany,36.4908278,-81.11550037,,12,Investigation,Kevin Arnold,919-707-8260,kevin.arnold@ncdenr.gov,FALSE,2023/09/11 00:00:00+00,https://edocs.deq.nc.gov/WasteManagement/Search.aspx?dbid=0&searchcommand={[WM]:[Program_ID]=%22*NONCD0000113*%22}
-82.602112,35.545758,3337,NCD980558027,Pond Road LF #2,79 and 80 Pond Rd.,Asheville,Buncombe,35.545758,-82.602112,ESRI AGOL BASE MAP,31,Investigation,Kevin Arnold,919-707-8260,kevin.arnold@ncdenr.gov,FALSE,2023/09/11 00:00:00+00,https://edocs.deq.nc.gov/WasteManagement/Search.aspx?dbid=0&searchcommand={[WM]:[Program_ID]=%22*NCD980558027*%22}
-76.6379909999999,34.716303,3338,NONCD0000200,Beaufort Refuse Dump,FREEDOM PARK ROAD,BEAUFORT,Carteret,34.716303,-76.637991,ESRI AGOL BASE MAP,31,Investigation,Kevin Arnold,919-707-8260,kevin.arnold@ncdenr.gov,FALSE,2023/09/11 00:00:00+00,https://edocs.deq.nc.gov/WasteManagement/Search.aspx?dbid=0&searchcommand={[WM]:[Program_ID]=%22*NONCD0000200*%22}
-81.06618516,35.3734577000001,3339,NONCD0000316,Stanley Refuse Dump,524 Blacksnake Road,STANLEY,Gaston,35.3734577,-81.06618516,,12,Investigation,Kevin Arnold,919-707-8260,kevin.arnold@ncdenr.gov,FALSE,2023/09/11 00:00:00+00,https://edocs.deq.nc.gov/WasteManagement/Search.aspx?dbid=0&searchcommand={[WM]:[Program_ID]=%22*NONCD0000316*%22}
-81.394939,35.3702490000001,3340,NONCD0000817,Westgate Park Landfill,1109 W. Carroll Street,Cherryville,GASTON,35.370249,-81.394939,,13,Investigation,Kevin Arnold,919-707-8260,kevin.arnold@ncdenr.gov,FALSE,2023/09/11 00:00:00+00,https://edocs.deq.nc.gov/WasteManagement/Search.aspx?dbid=0&searchcommand={[WM]:[Program_ID]=%22*NONCD0000817*%22}
-81.19090376,35.3948363700001,3341,NONCD0000317,Hardin Refuse Dump,129 Dayton Rd,Dallas,Gaston,35.39483637,-81.19090376,,12,Investigation,Kevin Arnold,919-707-8260,kevin.arnold@ncdenr.gov,FALSE,2023/09/11 00:00:00+00,https://edocs.deq.nc.gov/WasteManagement/Search.aspx?dbid=0&searchcommand={[WM]:[Program_ID]=%22*NONCD0000317*%22}
-79.73267801,36.1017678900001,3342,NCD980557607,Glass EH County LF,1103 NEALTOWN RD,GREENSBORO,Guilford,36.10176789,-79.73267801,,12,Investigation,Kevin Arnold,919-707-8260,kevin.arnold@ncdenr.gov,FALSE,2023/09/11 00:00:00+00,https://edocs.deq.nc.gov/WasteManagement/Search.aspx?dbid=0&searchcommand={[WM]:[Program_ID]=%22*NCD980557607*%22}
-77.896653,36.033038,3343,NCD980559330,Nash County LF (Red Oak LF),Red Oak - Battleboro Road,RED OAK,Nash,36.033038,-77.896653,ESRI AGOL BASE MAP,31,Remediation,Kevin Arnold,919-707-8260,kevin.arnold@ncdenr.gov,FALSE,2023/09/11 00:00:00+00,https://edocs.deq.nc.gov/WasteManagement/Search.aspx?dbid=0&searchcommand={[WM]:[Program_ID]=%22*NCD980559330*%22}
-77.43176533,34.7435797000001,3344,NONCD0000679,Jacksonville WWTP Landfill at Sturgeon City,Loyola Drive & Wardola Drive,Jacksonville,Onslow,34.7435797,-77.43176533,,12,Investigation,Kevin Arnold,919-707-8260,kevin.arnold@ncdenr.gov,FALSE,2023/09/11 00:00:00+00,https://edocs.deq.nc.gov/WasteManagement/Search.aspx?dbid=0&searchcommand={[WM]:[Program_ID]=%22*NONCD0000679*%22}
-80.52103084,35.6531345500001,3345,NCD980557748,Rowan County Landfill,national guard road,Salisbury,Rowan,35.65313455,-80.52103084,,12,Investigation,Kevin Arnold,919-707-8260,kevin.arnold@ncdenr.gov,FALSE,2023/09/11 00:00:00+00,https://edocs.deq.nc.gov/WasteManagement/Search.aspx?dbid=0&searchcommand={[WM]:[Program_ID]=%22*NCD980557748*%22}
-78.8066375,35.6610401200001,3346,NONCD0000665,old holly springs dump/ Cary sanitary LFl,Holly Springs Rd,HOLLY SPRINGS,Wake,35.66104012,-78.8066375,,12,Investigation,Kevin Arnold,919-707-8260,kevin.arnold@ncdenr.gov,FALSE,2023/09/11 00:00:00+00,https://edocs.deq.nc.gov/WasteManagement/Search.aspx?dbid=0&searchcommand={[WM]:[Program_ID]=%22*NONCD0000665*%22}
-78.622281,35.816106,3347,NONCD0000691,OLD RALEIGH LF #8,Industrial Dr,RALEIGH,WAKE,35.816106,-78.622281,ESRI AGOL BASE MAP,31,Investigation,Kevin Arnold,919-707-8260,kevin.arnold@ncdenr.gov,FALSE,2023/09/11 00:00:00+00,https://edocs.deq.nc.gov/WasteManagement/Search.aspx?dbid=0&searchcommand={[WM]:[Program_ID]=%22*NONCD0000691*%22}
-80.6595379999999,36.14262992,3348,NONCD0000647,Yadkinville Refuse Disposal,1141 Tennessee Street,YADKINVILLE,Yadkin,36.14262992,-80.659538,,12,Investigation,Kevin Arnold,919-707-8260,kevin.arnold@ncdenr.gov,FALSE,2023/09/11 00:00:00+00,https://edocs.deq.nc.gov/WasteManagement/Search.aspx?dbid=0&searchcommand={[WM]:[Program_ID]=%22*NONCD0000647*%22}
-76.9114125,34.87445675,3349,NONCD0000780,BELLTOWN ROAD DUMP,302 Belltown Rd.,HAVELOCK,CRAVEN,34.87445675,-76.9114125,,12,Investigation,Kevin Kelt,919-707-8331,kevin.kelt@ncdenr.gov,FALSE,2023/09/11 00:00:00+00,https://edocs.deq.nc.gov/WasteManagement/Search.aspx?dbid=0&searchcommand={[WM]:[Program_ID]=%22*NONCD0000780*%22}
-78.92027638,35.11433028,3350,NONCD0000739,City of Fayetteville Landfill,Shaw Mill Rd.,Fayetteville,Cumberland,35.11433028,-78.92027638,,12,Investigation,Kevin Kelt,919-707-8331,kevin.kelt@ncdenr.gov,FALSE,2023/09/11 00:00:00+00,https://edocs.deq.nc.gov/WasteManagement/Search.aspx?dbid=0&searchcommand={[WM]:[Program_ID]=%22*NONCD0000739*%22}
-81.03701721,35.3349558300001,3351,NONCD0000321,Gaston Co. LF (Mt. Holly LF),Old Hwy NC 27,Mt. Holly,Gaston,35.33495583,-81.03701721,,12,Investigation,Kevin Kelt,919-707-8331,kevin.kelt@ncdenr.gov,FALSE,2023/09/11 00:00:00+00,https://edocs.deq.nc.gov/WasteManagement/Search.aspx?dbid=0&searchcommand={[WM]:[Program_ID]=%22*NONCD0000321*%22}
-79.9577388599999,36.0831966100001,3352,NONCD0000673,BUD HOLDING COMPANY,Sharp's Airpark Ct,GREENSBORO,GUILFORD,36.08319661,-79.95773886,,12,Investigation,Kevin Kelt,919-707-8331,kevin.kelt@ncdenr.gov,FALSE,2023/09/11 00:00:00+00,https://edocs.deq.nc.gov/WasteManagement/Search.aspx?dbid=0&searchcommand={[WM]:[Program_ID]=%22*NONCD0000673*%22}
-83.01253833,35.62912218,3353,NONCD0000800,Hoglen Refuse Disposal,160 White Ridge (SR 1338),Waynesville,Haywood,35.62912218,-83.01253833,,12,Investigation,Kevin Kelt,919-707-8331,kevin.kelt@ncdenr.gov,FALSE,2023/09/11 00:00:00+00,https://edocs.deq.nc.gov/WasteManagement/Search.aspx?dbid=0&searchcommand={[WM]:[Program_ID]=%22*NONCD0000800*%22}
-80.83797655,35.59253734,3354,NONCD0000374,Mooresville Landfill,2586 Charlotte Hwy,Mooresville,Iredell,35.59253734,-80.83797655,,12,Investigation,Kevin Kelt,919-707-8331,kevin.kelt@ncdenr.gov,FALSE,2023/09/11 00:00:00+00,https://edocs.deq.nc.gov/WasteManagement/Search.aspx?dbid=0&searchcommand={[WM]:[Program_ID]=%22*NONCD0000374*%22}
-79.7789350199999,35.37479173,3355,NONCD0000435,Hurley's Dump,Alternate HYW 220,BISCOE,Montgomery,35.37479173,-79.77893502,,12,Investigation,Kevin Kelt,919-707-8331,kevin.kelt@ncdenr.gov,FALSE,2023/09/11 00:00:00+00,https://edocs.deq.nc.gov/WasteManagement/Search.aspx?dbid=0&searchcommand={[WM]:[Program_ID]=%22*NONCD0000435*%22}
-77.3370323999999,35.60783272,3356,NCD980557698,Greenville City LF,5th Street and Cemetery Road,Greenville,Pitt,35.60783272,-77.3370324,,12,Investigation,Kevin Kelt,919-707-8331,kevin.kelt@ncdenr.gov,FALSE,2023/09/11 00:00:00+00,https://edocs.deq.nc.gov/WasteManagement/Search.aspx?dbid=0&searchcommand={[WM]:[Program_ID]=%22*NCD980557698*%22}
-80.46284631,36.39083255,3357,NONCD0000583,Pilot Mt. Refuse Dump,Indigo Lane,PILOT MT,Surry,36.39083255,-80.46284631,,12,Investigation,Kevin Kelt,919-707-8331,kevin.kelt@ncdenr.gov,FALSE,2023/09/11 00:00:00+00,https://edocs.deq.nc.gov/WasteManagement/Search.aspx?dbid=0&searchcommand={[WM]:[Program_ID]=%22*NONCD0000583*%22}
-78.6381050799999,35.7590669800001,3358,NONCD0000684,OLD RALEIGH LF #1,1430 S Blount St,RALEIGH,WAKE,35.75906698,-78.63810508,,12,Investigation,Kevin Kelt,919-707-8331,kevin.kelt@ncdenr.gov,FALSE,2023/09/11 00:00:00+00,https://edocs.deq.nc.gov/WasteManagement/Search.aspx?dbid=0&searchcommand={[WM]:[Program_ID]=%22*NONCD0000684*%22}
-78.6430149299999,35.75658471,3359,NONCD0000689,OLD RALEIGH LF #6,BLUFF ST,RALEIGH,WAKE,35.75658471,-78.64301493,,12,Investigation,Kevin Kelt,919-707-8331,kevin.kelt@ncdenr.gov,FALSE,2023/09/11 00:00:00+00,https://edocs.deq.nc.gov/WasteManagement/Search.aspx?dbid=0&searchcommand={[WM]:[Program_ID]=%22*NONCD0000689*%22}
-78.43657889,35.8013773100001,3360,NONCD0000614,East Wake County LF,SR 2655/ US 64,KNIGHTDALE,Wake,35.80137731,-78.43657889,,12,Remediation,Kevin Kelt,919-707-8331,kevin.kelt@ncdenr.gov,FALSE,2023/09/11 00:00:00+00,https://edocs.deq.nc.gov/WasteManagement/Search.aspx?dbid=0&searchcommand={[WM]:[Program_ID]=%22*NONCD0000614*%22}
-78.01086101,35.35988043,3361,NONCD0000630,Goldsboro Dump,US Highway 117 Bypass,Goldsboro,Wayne,35.35988043,-78.01086101,,12,Investigation,Kevin Kelt,919-707-8331,kevin.kelt@ncdenr.gov,FALSE,2023/09/11 00:00:00+00,https://edocs.deq.nc.gov/WasteManagement/Search.aspx?dbid=0&searchcommand={[WM]:[Program_ID]=%22*NONCD0000630*%22}
-79.28635825,36.0898830200001,3362,NONCD0000101,MEBANE DUMP,Corrigidor Road,MEBANE,ALAMANCE,36.08988302,-79.28635825,,12,Activity Pending,PRLF Unit Supervisor,919-707-8333,ryan.channell@ncdenr.gov,FALSE,2023/09/11 00:00:00+00,https://edocs.deq.nc.gov/WasteManagement/Search.aspx?dbid=0&searchcommand={[WM]:[Program_ID]=%22*NONCD0000101*%22}
-79.4298706599999,36.1368319000001,3363,NONCD0000102,ALAMANCE GARBAGE SERVICE,Freeland Trail,BURLINGTON,ALAMANCE,36.1368319,-79.42987066,,12,Activity Pending,PRLF Unit Supervisor,919-707-8333,ryan.channell@ncdenr.gov,FALSE,2023/09/11 00:00:00+00,https://edocs.deq.nc.gov/WasteManagement/Search.aspx?dbid=0&searchcommand={[WM]:[Program_ID]=%22*NONCD0000102*%22}
-79.3700686399999,36.0460467300001,3364,NONCD0000104,GRAHAM DISPOSAL,Cooper Rd (SR 2109),GRAHAM,ALAMANCE,36.04604673,-79.37006864,,12,Activity Pending,PRLF Unit Supervisor,919-707-8333,ryan.channell@ncdenr.gov,FALSE,2023/09/11 00:00:00+00,https://edocs.deq.nc.gov/WasteManagement/Search.aspx?dbid=0&searchcommand={[WM]:[Program_ID]=%22*NONCD0000104*%22}
-79.4688802699999,36.12366583,3365,NONCD0000723,DURHAM ST LDFL,DURHAM Street Ext.,BURLINGTON,ALAMANCE,36.12366583,-79.46888027,,12,Activity Pending,PRLF Unit Supervisor,919-707-8333,ryan.channell@ncdenr.gov,FALSE,2023/09/11 00:00:00+00,https://edocs.deq.nc.gov/WasteManagement/Search.aspx?dbid=0&searchcommand={[WM]:[Program_ID]=%22*NONCD0000723*%22}
-79.44801094,36.08238599,3366,NONCD0000724,S MEBANE ST LDFL,S MEBANE ST,BURLINGTON,ALAMANCE,36.08238599,-79.44801094,,12,Activity Pending,PRLF Unit Supervisor,919-707-8333,ryan.channell@ncdenr.gov,FALSE,2023/09/11 00:00:00+00,https://edocs.deq.nc.gov/WasteManagement/Search.aspx?dbid=0&searchcommand={[WM]:[Program_ID]=%22*NONCD0000724*%22}
-79.39255521,36.0647678300001,3367,NONCD0000726,CIVIC CENTER AREA,Goley Street,GRAHAM,ALAMANCE,36.06476783,-79.39255521,,12,Activity Pending,PRLF Unit Supervisor,919-707-8333,ryan.channell@ncdenr.gov,FALSE,2023/09/11 00:00:00+00,https://edocs.deq.nc.gov/WasteManagement/Search.aspx?dbid=0&searchcommand={[WM]:[Program_ID]=%22*NONCD0000726*%22}
-79.3547124,36.06693834,3368,NONCD0000727,PORTER AVENUE LDFL,PORTER AVENUE,GRAHAM,ALAMANCE,36.06693834,-79.3547124,,12,Activity Pending,PRLF Unit Supervisor,919-707-8333,ryan.channell@ncdenr.gov,FALSE,2023/09/11 00:00:00+00,https://edocs.deq.nc.gov/WasteManagement/Search.aspx?dbid=0&searchcommand={[WM]:[Program_ID]=%22*NONCD0000727*%22}
-79.37840561,36.09622998,3369,NONCD0000721,STONE QUARRY RD LDFL,STONE QUARRY RD,BURLINGTON,ALAMANCE,36.09622998,-79.37840561,,12,Activity Pending,PRLF Unit Supervisor,919-707-8333,ryan.channell@ncdenr.gov,FALSE,2023/09/11 00:00:00+00,https://edocs.deq.nc.gov/WasteManagement/Search.aspx?dbid=0&searchcommand={[WM]:[Program_ID]=%22*NONCD0000721*%22}
-81.3087416499999,35.8127561700001,3370,NONCD0000108,Bethlehem Community Dump,Shiloh Church Rd,BETHLEHEM,Alexander,35.81275617,-81.30874165,,12,Activity Pending,PRLF Unit Supervisor,919-707-8333,ryan.channell@ncdenr.gov,FALSE,2023/09/11 00:00:00+00,https://edocs.deq.nc.gov/WasteManagement/Search.aspx?dbid=0&searchcommand={[WM]:[Program_ID]=%22*NONCD0000108*%22}
-81.15896159,35.9097119400001,3371,NONCD0000109,Sanitary Pick-up Service,46 Warren Rd,TAYLORSVILLE,Alexander,35.90971194,-81.15896159,,12,Activity Pending,PRLF Unit Supervisor,919-707-8333,ryan.channell@ncdenr.gov,FALSE,2023/09/11 00:00:00+00,https://edocs.deq.nc.gov/WasteManagement/Search.aspx?dbid=0&searchcommand={[WM]:[Program_ID]=%22*NONCD0000109*%22}
-81.06111619,35.89555575,3372,NCD981021090,ROGERS PROPERTY,256 Jeff Walker Lane,HIDDENITE,ALEXANDER,35.89555575,-81.06111619,,12,Activity Pending,PRLF Unit Supervisor,919-707-8333,ryan.channell@ncdenr.gov,FALSE,2023/09/11 00:00:00+00,https://edocs.deq.nc.gov/WasteManagement/Search.aspx?dbid=0&searchcommand={[WM]:[Program_ID]=%22*NCD981021090*%22}
-81.15908999,35.87099829,3373,NONCD0000111,Old Alexander County LF (SR 1608),Warren Acres Lane,TAYLORSVILLE,Alexander,35.87099829,-81.15908999,,12,Activity Pending,PRLF Unit Supervisor,919-707-8333,ryan.channell@ncdenr.gov,FALSE,2023/09/11 00:00:00+00,https://edocs.deq.nc.gov/WasteManagement/Search.aspx?dbid=0&searchcommand={[WM]:[Program_ID]=%22*NONCD0000111*%22}
-81.1498044799999,35.93995699,3374,NONCD0000112,Taylorsville Dump,Carson Chapel Rd,TAYLORSVILLE,Alexander,35.93995699,-81.14980448,,12,Activity Pending,PRLF Unit Supervisor,919-707-8333,ryan.channell@ncdenr.gov,FALSE,2023/09/11 00:00:00+00,https://edocs.deq.nc.gov/WasteManagement/Search.aspx?dbid=0&searchcommand={[WM]:[Program_ID]=%22*NONCD0000112*%22}
-81.11321714,36.4969416100001,3375,NONCD0000114,Sparta Refuse Disposal,271 Grandview Ave,SPARTA,Alleghany,36.49694161,-81.11321714,,12,Activity Pending,PRLF Unit Supervisor,919-707-8333,ryan.channell@ncdenr.gov,FALSE,2023/09/11 00:00:00+00,https://edocs.deq.nc.gov/WasteManagement/Search.aspx?dbid=0&searchcommand={[WM]:[Program_ID]=%22*NONCD0000114*%22}
-80.0836437899999,34.97771834,3376,NONCD0000117,Wadesboro Landfill,Maple Lane,WADESBORO,Anson,34.97771834,-80.08364379,,12,Activity Pending,PRLF Unit Supervisor,919-707-8333,ryan.channell@ncdenr.gov,FALSE,2023/09/11 00:00:00+00,https://edocs.deq.nc.gov/WasteManagement/Search.aspx?dbid=0&searchcommand={[WM]:[Program_ID]=%22*NONCD0000117*%22}
-79.9418533899999,34.9376999,3377,NONCD0000772,W R Bonsal #1,Hailey's Ferry Road,LILESVILLE,Anson,34.9376999,-79.94185339,,12,Activity Pending,PRLF Unit Supervisor,919-707-8333,ryan.channell@ncdenr.gov,FALSE,2023/09/11 00:00:00+00,https://edocs.deq.nc.gov/WasteManagement/Search.aspx?dbid=0&searchcommand={[WM]:[Program_ID]=%22*NONCD0000772*%22}
-79.9408658999999,34.93560704,3378,NONCD0000774,W R Bonsal #2,Hailey's Ferry Road,Lilesville,ANSON,34.93560704,-79.9408659,,12,Activity Pending,PRLF Unit Supervisor,919-707-8333,ryan.channell@ncdenr.gov,FALSE,2023/09/11 00:00:00+00,https://edocs.deq.nc.gov/WasteManagement/Search.aspx?dbid=0&searchcommand={[WM]:[Program_ID]=%22*NONCD0000774*%22}
-79.93323565,34.97014097,3379,NONCD0000119,Bronson Sand & Gravel Landfill,Clark Mountain Road,LILESVILLE,Anson,34.97014097,-79.93323565,,12,Activity Pending,PRLF Unit Supervisor,919-707-8333,ryan.channell@ncdenr.gov,FALSE,2023/09/11 00:00:00+00,https://edocs.deq.nc.gov/WasteManagement/Search.aspx?dbid=0&searchcommand={[WM]:[Program_ID]=%22*NONCD0000119*%22}
-80.04206994,34.8844774,3380,NONCD0000116,Morven Dump,Rosehaven Road,MORVEN,Anson,34.8844774,-80.04206994,,12,Activity Pending,PRLF Unit Supervisor,919-707-8333,ryan.channell@ncdenr.gov,FALSE,2023/09/11 00:00:00+00,https://edocs.deq.nc.gov/WasteManagement/Search.aspx?dbid=0&searchcommand={[WM]:[Program_ID]=%22*NONCD0000116*%22}
-80.21238318,35.0260063600001,3381,NONCD0000115,Polkton Dump,Bill Curlee Road (SR 1415),POLKTON,Anson,35.02600636,-80.21238318,,12,Activity Pending,PRLF Unit Supervisor,919-707-8333,ryan.channell@ncdenr.gov,FALSE,2023/09/11 00:00:00+00,https://edocs.deq.nc.gov/WasteManagement/Search.aspx?dbid=0&searchcommand={[WM]:[Program_ID]=%22*NONCD0000115*%22}
-80.27894158,35.0056201400001,3382,NONCD0000118,Peachland Dump,German Hill Road,PEACHLAND,Anson,35.00562014,-80.27894158,,12,Activity Pending,PRLF Unit Supervisor,919-707-8333,ryan.channell@ncdenr.gov,FALSE,2023/09/11 00:00:00+00,https://edocs.deq.nc.gov/WasteManagement/Search.aspx?dbid=0&searchcommand={[WM]:[Program_ID]=%22*NONCD0000118*%22}
-81.45401592,36.4302197800001,3383,NONCD0000120,Ashe County Landfill,Wade Bare Rd,JEFFERSON,Ashe,36.43021978,-81.45401592,,12,Activity Pending,PRLF Unit Supervisor,919-707-8333,ryan.channell@ncdenr.gov,FALSE,2023/09/11 00:00:00+00,https://edocs.deq.nc.gov/WasteManagement/Search.aspx?dbid=0&searchcommand={[WM]:[Program_ID]=%22*NONCD0000120*%22}
-81.9277914799999,36.02501134,3384,NONCD0000122,Crossnore Refuse Dump,Horton Rd,CROSSMORE,Avery,36.02501134,-81.92779148,,12,Activity Pending,PRLF Unit Supervisor,919-707-8333,ryan.channell@ncdenr.gov,FALSE,2023/09/11 00:00:00+00,https://edocs.deq.nc.gov/WasteManagement/Search.aspx?dbid=0&searchcommand={[WM]:[Program_ID]=%22*NONCD0000122*%22}
-81.99441117,35.9481778700001,3385,NONCD0000121,Green Valley Dump,Brushy Creek Rd,Spruce Pine,Avery,35.94817787,-81.99441117,,12,Activity Pending,PRLF Unit Supervisor,919-707-8333,ryan.channell@ncdenr.gov,FALSE,2023/09/11 00:00:00+00,https://edocs.deq.nc.gov/WasteManagement/Search.aspx?dbid=0&searchcommand={[WM]:[Program_ID]=%22*NONCD0000121*%22}
-81.9161915999999,36.10384843,3386,NONCD0000124,Newland Refuse Dump,Hickory Nut Gap,NEWLAND,Avery,36.10384843,-81.9161916,,12,Activity Pending,PRLF Unit Supervisor,919-707-8333,ryan.channell@ncdenr.gov,FALSE,2023/09/11 00:00:00+00,https://edocs.deq.nc.gov/WasteManagement/Search.aspx?dbid=0&searchcommand={[WM]:[Program_ID]=%22*NONCD0000124*%22}
-81.98760533,36.16120849,3387,NONCD0000123,Elk Park Dump,N65-19E,ELK PARK,Avery,36.16120849,-81.98760533,,12,Activity Pending,PRLF Unit Supervisor,919-707-8333,ryan.channell@ncdenr.gov,FALSE,2023/09/11 00:00:00+00,https://edocs.deq.nc.gov/WasteManagement/Search.aspx?dbid=0&searchcommand={[WM]:[Program_ID]=%22*NONCD0000123*%22}
-76.64481972,35.5596654300001,3388,NONCD0000130,Pantego Dump,Old Country Road (SR 1706),Belhaven,Beaufort,35.55966543,-76.64481972,,12,Activity Pending,PRLF Unit Supervisor,919-707-8333,ryan.channell@ncdenr.gov,FALSE,2023/09/11 00:00:00+00,https://edocs.deq.nc.gov/WasteManagement/Search.aspx?dbid=0&searchcommand={[WM]:[Program_ID]=%22*NONCD0000130*%22}
-76.61150051,35.6351955100001,3389,NONCD0000132,Pungo Dump,NC Highway 99 North,Pantego,Beaufort,35.63519551,-76.61150051,,12,Activity Pending,PRLF Unit Supervisor,919-707-8333,ryan.channell@ncdenr.gov,FALSE,2023/09/11 00:00:00+00,https://edocs.deq.nc.gov/WasteManagement/Search.aspx?dbid=0&searchcommand={[WM]:[Program_ID]=%22*NONCD0000132*%22}
-77.0748045,35.5578559,3390,NONCD0000129,Washington Dump,Plymouth Street,Washington,Beaufort,35.5578559,-77.0748045,,12,Activity Pending,PRLF Unit Supervisor,919-707-8333,ryan.channell@ncdenr.gov,FALSE,2023/09/11 00:00:00+00,https://edocs.deq.nc.gov/WasteManagement/Search.aspx?dbid=0&searchcommand={[WM]:[Program_ID]=%22*NONCD0000129*%22}
-76.7706214,35.3022995100001,3391,NONCD0000126,Aurora Dump,"SR 1921, 1 mile east of Aurora",Aurora,Beaufort,35.30229951,-76.7706214,,12,Activity Pending,PRLF Unit Supervisor,919-707-8333,ryan.channell@ncdenr.gov,FALSE,2023/09/11 00:00:00+00,https://edocs.deq.nc.gov/WasteManagement/Search.aspx?dbid=0&searchcommand={[WM]:[Program_ID]=%22*NONCD0000126*%22}
-77.02292318,35.5566528700001,3392,NONCD0000135,Town of Washington Park Dump,Keysville Church Rd. (SR 1506),Washington,Beaufort,35.55665287,-77.02292318,,12,Activity Pending,PRLF Unit Supervisor,919-707-8333,ryan.channell@ncdenr.gov,FALSE,2023/09/11 00:00:00+00,https://edocs.deq.nc.gov/WasteManagement/Search.aspx?dbid=0&searchcommand={[WM]:[Program_ID]=%22*NONCD0000135*%22}
-76.8018641199999,35.4840858900001,3393,NONCD0000128,Bath Dump,Possum Hill Road (SR 1743),Bath,Beaufort,35.48408589,-76.80186412,,12,Activity Pending,PRLF Unit Supervisor,919-707-8333,ryan.channell@ncdenr.gov,FALSE,2023/09/11 00:00:00+00,https://edocs.deq.nc.gov/WasteManagement/Search.aspx?dbid=0&searchcommand={[WM]:[Program_ID]=%22*NONCD0000128*%22}
-76.97507309,35.5372016200001,3394,NONCD0000125,Suburban Sanitation Service Dump,Old Bath Highway,Washington,Beaufort,35.53720162,-76.97507309,,12,Activity Pending,PRLF Unit Supervisor,919-707-8333,ryan.channell@ncdenr.gov,FALSE,2023/09/11 00:00:00+00,https://edocs.deq.nc.gov/WasteManagement/Search.aspx?dbid=0&searchcommand={[WM]:[Program_ID]=%22*NONCD0000125*%22}
-77.08219559,35.5271029200001,3395,NONCD0000127,Chocowinity Dump,Old US 17 Highway South,Chocowinity,Beaufort,35.52710292,-77.08219559,,12,Activity Pending,PRLF Unit Supervisor,919-707-8333,ryan.channell@ncdenr.gov,FALSE,2023/09/11 00:00:00+00,https://edocs.deq.nc.gov/WasteManagement/Search.aspx?dbid=0&searchcommand={[WM]:[Program_ID]=%22*NONCD0000127*%22}
-76.6037412599999,35.54987235,3396,NONCD0000131,Belhaven Dump,Business US 264 and Campbell's Lane,Belhaven,Beaufort,35.54987235,-76.60374126,,12,Activity Pending,PRLF Unit Supervisor,919-707-8333,ryan.channell@ncdenr.gov,FALSE,2023/09/11 00:00:00+00,https://edocs.deq.nc.gov/WasteManagement/Search.aspx?dbid=0&searchcommand={[WM]:[Program_ID]=%22*NONCD0000131*%22}
-77.1172138699999,35.5916620100001,3397,NCD986166734,Old Beaufort County LF,Flanders Filter Road,Washington,Beaufort,35.59166201,-77.11721387,,12,Activity Pending,PRLF Unit Supervisor,919-707-8333,ryan.channell@ncdenr.gov,FALSE,2023/09/11 00:00:00+00,https://edocs.deq.nc.gov/WasteManagement/Search.aspx?dbid=0&searchcommand={[WM]:[Program_ID]=%22*NCD986166734*%22}
-76.66790529,35.58339141,3398,NONCD0000133,Pantego Refuse Disposal,25179 US Highway 264 East,Pantego,Beaufort,35.58339141,-76.66790529,,12,Activity Pending,PRLF Unit Supervisor,919-707-8333,ryan.channell@ncdenr.gov,FALSE,2023/09/11 00:00:00+00,https://edocs.deq.nc.gov/WasteManagement/Search.aspx?dbid=0&searchcommand={[WM]:[Program_ID]=%22*NONCD0000133*%22}
-77.01708502,35.53009617,3399,NONCD0000134,Washington Park Dump,River Road (SR 1300),Washington,Beaufort,35.53009617,-77.01708502,,12,Activity Pending,PRLF Unit Supervisor,919-707-8333,ryan.channell@ncdenr.gov,FALSE,2023/09/11 00:00:00+00,https://edocs.deq.nc.gov/WasteManagement/Search.aspx?dbid=0&searchcommand={[WM]:[Program_ID]=%22*NONCD0000134*%22}
-77.18755449,36.19104509,3400,NONCD0000136,Kelford Dump,Harrells Siding Road (SR 1208),KELFORD,Bertie,36.19104509,-77.18755449,,12,Activity Pending,PRLF Unit Supervisor,919-707-8333,ryan.channell@ncdenr.gov,FALSE,2023/09/11 00:00:00+00,https://edocs.deq.nc.gov/WasteManagement/Search.aspx?dbid=0&searchcommand={[WM]:[Program_ID]=%22*NONCD0000136*%22}
-77.1883121499999,36.19147092,3401,NONCD0000139,Roxobel Refuse Disposal,Harrells Siding Road (SR 1208),Kelford,Bertie,36.19147092,-77.18831215,,12,Activity Pending,PRLF Unit Supervisor,919-707-8333,ryan.channell@ncdenr.gov,FALSE,2023/09/11 00:00:00+00,https://edocs.deq.nc.gov/WasteManagement/Search.aspx?dbid=0&searchcommand={[WM]:[Program_ID]=%22*NONCD0000139*%22}
-76.7842227899999,36.2014294200001,3402,NONCD0000142,Colerain Refuse Disposal,NC 42 East,COLERAIN,Bertie,36.20142942,-76.78422279,,12,Activity Pending,PRLF Unit Supervisor,919-707-8333,ryan.channell@ncdenr.gov,FALSE,2023/09/11 00:00:00+00,https://edocs.deq.nc.gov/WasteManagement/Search.aspx?dbid=0&searchcommand={[WM]:[Program_ID]=%22*NONCD0000142*%22}
-77.23023196,36.15259582,3403,NONCD0000140,Lewiston Refuse Disposal,551 Black Jack Road (SR 1135),LEWISTON,Bertie,36.15259582,-77.23023196,,12,Activity Pending,PRLF Unit Supervisor,919-707-8333,ryan.channell@ncdenr.gov,FALSE,2023/09/11 00:00:00+00,https://edocs.deq.nc.gov/WasteManagement/Search.aspx?dbid=0&searchcommand={[WM]:[Program_ID]=%22*NONCD0000140*%22}
-76.94067931,35.9852298800001,3404,NONCD0000141,Windsor Refuse Disposal Area,East Elm Street,WINDSOR,Bertie,35.98522988,-76.94067931,,12,Activity Pending,PRLF Unit Supervisor,919-707-8333,ryan.channell@ncdenr.gov,FALSE,2023/09/11 00:00:00+00,https://edocs.deq.nc.gov/WasteManagement/Search.aspx?dbid=0&searchcommand={[WM]:[Program_ID]=%22*NONCD0000141*%22}
-78.60349654,34.6296984000001,3405,NONCD0000145,Elizabethtown Refuse Disposal,Queen Street,ELIZABETHTOWN,Bladen,34.6296984,-78.60349654,,12,Activity Pending,PRLF Unit Supervisor,919-707-8333,ryan.channell@ncdenr.gov,FALSE,2023/09/11 00:00:00+00,https://edocs.deq.nc.gov/WasteManagement/Search.aspx?dbid=0&searchcommand={[WM]:[Program_ID]=%22*NONCD0000145*%22}
-78.48036489,34.63308722,3406,NONCD0000146,White Lake Refuse Dump,East Williams Street,WHITE LAKE,Bladen,34.63308722,-78.48036489,,12,Activity Pending,PRLF Unit Supervisor,919-707-8333,ryan.channell@ncdenr.gov,FALSE,2023/09/11 00:00:00+00,https://edocs.deq.nc.gov/WasteManagement/Search.aspx?dbid=0&searchcommand={[WM]:[Program_ID]=%22*NONCD0000146*%22}
-78.64247008,34.5233079600001,3407,NONCD0000147,Clarkton Refuse Disposal,Brown Marsh Road (SR 1700),CLARKTON,Bladen,34.52330796,-78.64247008,,12,Activity Pending,PRLF Unit Supervisor,919-707-8333,ryan.channell@ncdenr.gov,FALSE,2023/09/11 00:00:00+00,https://edocs.deq.nc.gov/WasteManagement/Search.aspx?dbid=0&searchcommand={[WM]:[Program_ID]=%22*NONCD0000147*%22}
-78.70780231,34.6607478,3408,NONCD0000144,Dublin Refuse Dump,Rice Pond Road,DUBLIN,Bladen,34.6607478,-78.70780231,,12,Activity Pending,PRLF Unit Supervisor,919-707-8333,ryan.channell@ncdenr.gov,FALSE,2023/09/11 00:00:00+00,https://edocs.deq.nc.gov/WasteManagement/Search.aspx?dbid=0&searchcommand={[WM]:[Program_ID]=%22*NONCD0000144*%22}
-78.78149903,34.75183008,3409,NONCD0000143,Tar Heel Refuse Disposal,Tar Heel Ferry Road (SR 1316),TAR HEEL,Bladen,34.75183008,-78.78149903,,12,Activity Pending,PRLF Unit Supervisor,919-707-8333,ryan.channell@ncdenr.gov,FALSE,2023/09/11 00:00:00+00,https://edocs.deq.nc.gov/WasteManagement/Search.aspx?dbid=0&searchcommand={[WM]:[Program_ID]=%22*NONCD0000143*%22}
-78.79594531,34.5385870700001,3410,NONCD0000148,Bladenboro Refuse Disposal,West Bladen Street,BLADENBORO,Bladen,34.53858707,-78.79594531,,12,Activity Pending,PRLF Unit Supervisor,919-707-8333,ryan.channell@ncdenr.gov,FALSE,2023/09/11 00:00:00+00,https://edocs.deq.nc.gov/WasteManagement/Search.aspx?dbid=0&searchcommand={[WM]:[Program_ID]=%22*NONCD0000148*%22}
-78.42853868,33.9170276900001,3411,NONCD0000656,OCEAN ISLE DUMP,HALE SWAMP ROAD,Ocean Isle,BRUNSWICK,33.91702769,-78.42853868,,12,Activity Pending,PRLF Unit Supervisor,919-707-8333,ryan.channell@ncdenr.gov,FALSE,2023/09/11 00:00:00+00,https://edocs.deq.nc.gov/WasteManagement/Search.aspx?dbid=0&searchcommand={[WM]:[Program_ID]=%22*NONCD0000656*%22}
-78.1404470699999,34.0681849600001,3412,NONCD0000149,Bolivia Refuse Disposal,161 DANFORD RD. SE (SR 1513),Bolivia,Brunswick,34.06818496,-78.14044707,,12,Activity Pending,PRLF Unit Supervisor,919-707-8333,ryan.channell@ncdenr.gov,FALSE,2023/09/11 00:00:00+00,https://edocs.deq.nc.gov/WasteManagement/Search.aspx?dbid=0&searchcommand={[WM]:[Program_ID]=%22*NONCD0000149*%22}
-78.49056841,33.90843018,3413,NONCD0000150,Grissettown Landfill,ANGEL'S CLUB DRIVE,Seaside,Brunswick,33.90843018,-78.49056841,,12,Activity Pending,PRLF Unit Supervisor,919-707-8333,ryan.channell@ncdenr.gov,FALSE,2023/09/11 00:00:00+00,https://edocs.deq.nc.gov/WasteManagement/Search.aspx?dbid=0&searchcommand={[WM]:[Program_ID]=%22*NONCD0000150*%22}
-78.3543293,33.9701308900001,3414,NONCD0000152,Shallotte Sanitary Landfill,"2930 POCONO TRAIL, SW",Shallotte,Brunswick,33.97013089,-78.3543293,,12,Activity Pending,PRLF Unit Supervisor,919-707-8333,ryan.channell@ncdenr.gov,FALSE,2023/09/11 00:00:00+00,https://edocs.deq.nc.gov/WasteManagement/Search.aspx?dbid=0&searchcommand={[WM]:[Program_ID]=%22*NONCD0000152*%22}
-78.03149232,34.04428103,3415,NONCD0000160,Boiling Springs Lakes Dump,Intersection of Lubee Road and Sioux Road,Boiling Springs,Brunswick,34.04428103,-78.03149232,,12,Activity Pending,PRLF Unit Supervisor,919-707-8333,ryan.channell@ncdenr.gov,FALSE,2023/09/11 00:00:00+00,https://edocs.deq.nc.gov/WasteManagement/Search.aspx?dbid=0&searchcommand={[WM]:[Program_ID]=%22*NONCD0000160*%22}
-78.3959256799999,33.97071864,3416,NONCD0000159,Shallotte Refuse Dump,NC 130,SHALLOTTE,Brunswick,33.97071864,-78.39592568,,12,Activity Pending,PRLF Unit Supervisor,919-707-8333,ryan.channell@ncdenr.gov,FALSE,2023/09/11 00:00:00+00,https://edocs.deq.nc.gov/WasteManagement/Search.aspx?dbid=0&searchcommand={[WM]:[Program_ID]=%22*NONCD0000159*%22}
-77.9591548499999,34.0096223900001,3417,NONCD0000810,SUNNY POINT BASE LANDFILL,SUNNY POINT ROAD,SOUTHPORT,BRUNSWICK,34.00962239,-77.95915485,,12,Activity Pending,PRLF Unit Supervisor,919-707-8333,ryan.channell@ncdenr.gov,FALSE,2023/09/11 00:00:00+00,https://edocs.deq.nc.gov/WasteManagement/Search.aspx?dbid=0&searchcommand={[WM]:[Program_ID]=%22*NONCD0000810*%22}
-78.076181,33.9332680200001,3418,NONCD0000155,Long Beach Refuse Disposal,4110 Airport Road,Long Beach,Brunswick,33.93326802,-78.076181,,12,Activity Pending,PRLF Unit Supervisor,919-707-8333,ryan.channell@ncdenr.gov,FALSE,2023/09/11 00:00:00+00,https://edocs.deq.nc.gov/WasteManagement/Search.aspx?dbid=0&searchcommand={[WM]:[Program_ID]=%22*NONCD0000155*%22}
-78.0753542799999,33.91143735,3419,NONCD0000158,Yaupon Beach Dump,McGLAMMERY STREET,Oak Island,Brunswick,33.91143735,-78.07535428,,12,Activity Pending,PRLF Unit Supervisor,919-707-8333,ryan.channell@ncdenr.gov,FALSE,2023/09/11 00:00:00+00,https://edocs.deq.nc.gov/WasteManagement/Search.aspx?dbid=0&searchcommand={[WM]:[Program_ID]=%22*NONCD0000158*%22}
-82.3563086999999,35.63217532,3420,NONCD0000166,Black Mountain,11 tom Brown Rd,BLACK MOUNTAIN,Buncombe,35.63217532,-82.3563087,,12,Activity Pending,PRLF Unit Supervisor,919-707-8333,ryan.channell@ncdenr.gov,FALSE,2023/09/11 00:00:00+00,https://edocs.deq.nc.gov/WasteManagement/Search.aspx?dbid=0&searchcommand={[WM]:[Program_ID]=%22*NONCD0000166*%22}
-82.57943649,35.68932525,3421,NONCD0000161,Weaverville Landfill,Lakeshore Rd,WEAVERVILLE,Buncombe,35.68932525,-82.57943649,,12,Activity Pending,PRLF Unit Supervisor,919-707-8333,ryan.channell@ncdenr.gov,FALSE,2023/09/11 00:00:00+00,https://edocs.deq.nc.gov/WasteManagement/Search.aspx?dbid=0&searchcommand={[WM]:[Program_ID]=%22*NONCD0000161*%22}
-82.52894106,35.45389885,3422,NONCD0000163,Fishburne Refuse Dump,Bradley Branch Rd,Arden,Buncombe,35.45389885,-82.52894106,,12,Activity Pending,PRLF Unit Supervisor,919-707-8333,ryan.channell@ncdenr.gov,FALSE,2023/09/11 00:00:00+00,https://edocs.deq.nc.gov/WasteManagement/Search.aspx?dbid=0&searchcommand={[WM]:[Program_ID]=%22*NONCD0000163*%22}
-82.590026,35.63933,3423,NCD980558019,Elk Mountain LDFL/Ashville City LF,Elk Park Dr,ASHEVILLE,Buncombe,35.63933,-82.590026,ESRI AGOL BASE MAP,31,Activity Pending,PRLF Unit Supervisor,919-707-8333,ryan.channell@ncdenr.gov,FALSE,2023/09/11 00:00:00+00,https://edocs.deq.nc.gov/WasteManagement/Search.aspx?dbid=0&searchcommand={[WM]:[Program_ID]=%22*NCD980558019*%22}
-82.3610663699999,35.6206347900001,3424,NCD980557912,Grove stone LF,842 Old US hwy 70,Black Mountain,Buncombe,35.62063479,-82.36106637,,12,Activity Pending,PRLF Unit Supervisor,919-707-8333,ryan.channell@ncdenr.gov,FALSE,2023/09/11 00:00:00+00,https://edocs.deq.nc.gov/WasteManagement/Search.aspx?dbid=0&searchcommand={[WM]:[Program_ID]=%22*NCD980557912*%22}
-82.68054985,35.5717168300001,3425,NONCD0000162,Candler Refuse Disposal Area,103 Daniel Ridge Rd,CANDLER,Buncombe,35.57171683,-82.68054985,,12,Activity Pending,PRLF Unit Supervisor,919-707-8333,ryan.channell@ncdenr.gov,FALSE,2023/09/11 00:00:00+00,https://edocs.deq.nc.gov/WasteManagement/Search.aspx?dbid=0&searchcommand={[WM]:[Program_ID]=%22*NONCD0000162*%22}
-82.57783567,35.6053271600001,3426,NONCD0000811,Pearson Bridge dump,690 riverside Dr,asheville,BUNCOMBE,35.60532716,-82.57783567,,12,Activity Pending,PRLF Unit Supervisor,919-707-8333,ryan.channell@ncdenr.gov,FALSE,2023/09/11 00:00:00+00,https://edocs.deq.nc.gov/WasteManagement/Search.aspx?dbid=0&searchcommand={[WM]:[Program_ID]=%22*NONCD0000811*%22}
-82.48524539,35.5738794700001,3427,NONCD0000773,Azalea Road Landfill,Hardesty Rd,Oteen,Buncombe,35.57387947,-82.48524539,,12,Activity Pending,PRLF Unit Supervisor,919-707-8333,ryan.channell@ncdenr.gov,FALSE,2023/09/11 00:00:00+00,https://edocs.deq.nc.gov/WasteManagement/Search.aspx?dbid=0&searchcommand={[WM]:[Program_ID]=%22*NONCD0000773*%22}
-81.66538675,35.7699777300001,3428,NONCD0000177,Morgantown Dump,Vine Arden Rd,MORGANTON,Burke,35.76997773,-81.66538675,,12,Activity Pending,PRLF Unit Supervisor,919-707-8333,ryan.channell@ncdenr.gov,FALSE,2023/09/11 00:00:00+00,https://edocs.deq.nc.gov/WasteManagement/Search.aspx?dbid=0&searchcommand={[WM]:[Program_ID]=%22*NONCD0000177*%22}
-81.66875558,35.8264743400001,3429,NONCD0000168,Bristol Creek Comm. Dump,1180 Sundance Lane,Chesterfield,Burke,35.82647434,-81.66875558,,12,Activity Pending,PRLF Unit Supervisor,919-707-8333,ryan.channell@ncdenr.gov,FALSE,2023/09/11 00:00:00+00,https://edocs.deq.nc.gov/WasteManagement/Search.aspx?dbid=0&searchcommand={[WM]:[Program_ID]=%22*NONCD0000168*%22}
-81.39847594,35.7358738300001,3430,NONCD0000651,Hickory Landfill,City of Hickory Regional Airport,Hickory,BURKE,35.73587383,-81.39847594,,12,Activity Pending,PRLF Unit Supervisor,919-707-8333,ryan.channell@ncdenr.gov,FALSE,2023/09/11 00:00:00+00,https://edocs.deq.nc.gov/WasteManagement/Search.aspx?dbid=0&searchcommand={[WM]:[Program_ID]=%22*NONCD0000651*%22}
-81.8397717999999,35.6663947100001,3431,NONCD0000169,Dysartsville Dump,5391 Morning Star Church Rd,DYSARTSVILLE,Burke,35.66639471,-81.8397718,,12,Activity Pending,PRLF Unit Supervisor,919-707-8333,ryan.channell@ncdenr.gov,FALSE,2023/09/11 00:00:00+00,https://edocs.deq.nc.gov/WasteManagement/Search.aspx?dbid=0&searchcommand={[WM]:[Program_ID]=%22*NONCD0000169*%22}
-81.5840243599999,35.77275919,3432,NONCD0000172,Drexel Dump,524 Bryant Rd,DREXEL,Burke,35.77275919,-81.58402436,,12,Activity Pending,PRLF Unit Supervisor,919-707-8333,ryan.channell@ncdenr.gov,FALSE,2023/09/11 00:00:00+00,https://edocs.deq.nc.gov/WasteManagement/Search.aspx?dbid=0&searchcommand={[WM]:[Program_ID]=%22*NONCD0000172*%22}
-81.5686039299999,35.7655295800001,3433,NONCD0000174,Valdese Refuse Dump,1400 Falls Rd NW,VALDESE,Burke,35.76552958,-81.56860393,,12,Activity Pending,PRLF Unit Supervisor,919-707-8333,ryan.channell@ncdenr.gov,FALSE,2023/09/11 00:00:00+00,https://edocs.deq.nc.gov/WasteManagement/Search.aspx?dbid=0&searchcommand={[WM]:[Program_ID]=%22*NONCD0000174*%22}
-80.56633793,35.37716212,3434,NONCD0000180,Concord Landfill,850 Warren Coleman Blvd. South,Concord,Cabarrus,35.37716212,-80.56633793,,12,Activity Pending,PRLF Unit Supervisor,919-707-8333,ryan.channell@ncdenr.gov,FALSE,2023/09/11 00:00:00+00,https://edocs.deq.nc.gov/WasteManagement/Search.aspx?dbid=0&searchcommand={[WM]:[Program_ID]=%22*NONCD0000180*%22}
-80.43751515,35.41826358,3435,NONCD0000181,Mount Pleasant Dump,Mount Pleasant Rd. (SR 1006),Mount Pleasant,Cabarrus,35.41826358,-80.43751515,,12,Activity Pending,PRLF Unit Supervisor,919-707-8333,ryan.channell@ncdenr.gov,FALSE,2023/09/11 00:00:00+00,https://edocs.deq.nc.gov/WasteManagement/Search.aspx?dbid=0&searchcommand={[WM]:[Program_ID]=%22*NONCD0000181*%22}
-80.6503519299999,35.5008851800001,3436,NONCD0000797,Frank James Dump,6210 Hilltop Ave.,Kannapolis,Cabarrus,35.50088518,-80.65035193,,12,Activity Pending,PRLF Unit Supervisor,919-707-8333,ryan.channell@ncdenr.gov,FALSE,2023/09/11 00:00:00+00,https://edocs.deq.nc.gov/WasteManagement/Search.aspx?dbid=0&searchcommand={[WM]:[Program_ID]=%22*NONCD0000797*%22}
-80.6314869299999,35.41194123,3437,NONCD0000799,Arthur Allman Dump,3224 Poplar Tent Rd.,Concord,Cabarrus,35.41194123,-80.63148693,,12,Activity Pending,PRLF Unit Supervisor,919-707-8333,ryan.channell@ncdenr.gov,FALSE,2023/09/11 00:00:00+00,https://edocs.deq.nc.gov/WasteManagement/Search.aspx?dbid=0&searchcommand={[WM]:[Program_ID]=%22*NONCD0000799*%22}
-80.6074080399999,35.4172394,3438,NONCD0001028,Gurley Drive LDFL,292 Gurley Dr.,Concord,Cabarrus,35.4172394,-80.60740804,,12,Activity Pending,PRLF Unit Supervisor,919-707-8333,ryan.channell@ncdenr.gov,FALSE,2023/09/11 00:00:00+00,https://edocs.deq.nc.gov/WasteManagement/Search.aspx?dbid=0&searchcommand={[WM]:[Program_ID]=%22*NONCD0001028*%22}
-80.54934686,35.46694862,3439,NONCD0000178,Earnhardt Road Dump,Dickens Place,Kannapolis,Cabarrus,35.46694862,-80.54934686,,12,Activity Pending,PRLF Unit Supervisor,919-707-8333,ryan.channell@ncdenr.gov,FALSE,2023/09/11 00:00:00+00,https://edocs.deq.nc.gov/WasteManagement/Search.aspx?dbid=0&searchcommand={[WM]:[Program_ID]=%22*NONCD0000178*%22}
-81.57970002,35.95214746,3440,NONCD0000193,Lenoir Dump,Beard Collettsville Rd,LENOIR,Caldwell,35.95214746,-81.57970002,,12,Activity Pending,PRLF Unit Supervisor,919-707-8333,ryan.channell@ncdenr.gov,FALSE,2023/09/11 00:00:00+00,https://edocs.deq.nc.gov/WasteManagement/Search.aspx?dbid=0&searchcommand={[WM]:[Program_ID]=%22*NONCD0000193*%22}
-81.71985087,36.105776,3441,NONCD0000194,Blowing Rock LF,Pack Hill RD,BLOWING ROCK,Caldwell,36.105776,-81.71985087,,12,Activity Pending,PRLF Unit Supervisor,919-707-8333,ryan.channell@ncdenr.gov,FALSE,2023/09/11 00:00:00+00,https://edocs.deq.nc.gov/WasteManagement/Search.aspx?dbid=0&searchcommand={[WM]:[Program_ID]=%22*NONCD0000194*%22}
-81.49760065,35.7937759000001,3442,NONCD0000191,Helton Refuse Dump,5351 Cannon Dr,Granite Falls,Caldwell,35.7937759,-81.49760065,,12,Activity Pending,PRLF Unit Supervisor,919-707-8333,ryan.channell@ncdenr.gov,FALSE,2023/09/11 00:00:00+00,https://edocs.deq.nc.gov/WasteManagement/Search.aspx?dbid=0&searchcommand={[WM]:[Program_ID]=%22*NONCD0000191*%22}
-81.4256739099999,35.7755201000001,3443,NONCD0000190,Rhodhiss Dump,Park Place,RHODHISS,Caldwell,35.7755201,-81.42567391,,12,Activity Pending,PRLF Unit Supervisor,919-707-8333,ryan.channell@ncdenr.gov,FALSE,2023/09/11 00:00:00+00,https://edocs.deq.nc.gov/WasteManagement/Search.aspx?dbid=0&searchcommand={[WM]:[Program_ID]=%22*NONCD0000190*%22}
-81.47941267,36.01807403,3444,NONCD0000189,Walsh Refuse Dump,2171 Piney Grove Circle,Lenoir,Caldwell,36.01807403,-81.47941267,,12,Activity Pending,PRLF Unit Supervisor,919-707-8333,ryan.channell@ncdenr.gov,FALSE,2023/09/11 00:00:00+00,https://edocs.deq.nc.gov/WasteManagement/Search.aspx?dbid=0&searchcommand={[WM]:[Program_ID]=%22*NONCD0000189*%22}
-81.47148992,35.8852262500001,3445,NONCD0000188,Garnes Refuse Dump,2250 Garnes Place,Lenoir,Caldwell,35.88522625,-81.47148992,,12,Activity Pending,PRLF Unit Supervisor,919-707-8333,ryan.channell@ncdenr.gov,FALSE,2023/09/11 00:00:00+00,https://edocs.deq.nc.gov/WasteManagement/Search.aspx?dbid=0&searchcommand={[WM]:[Program_ID]=%22*NONCD0000188*%22}
-81.4837667,35.8921084400001,3446,NONCD0000187,Chester Refuse Disposal,Dave Chester Dr,Lenoir,Caldwell,35.89210844,-81.4837667,,12,Activity Pending,PRLF Unit Supervisor,919-707-8333,ryan.channell@ncdenr.gov,FALSE,2023/09/11 00:00:00+00,https://edocs.deq.nc.gov/WasteManagement/Search.aspx?dbid=0&searchcommand={[WM]:[Program_ID]=%22*NONCD0000187*%22}
-81.4212074499999,35.8044604500001,3447,NONCD0000186,Granite Falls Dump,Quarry Rd,GRANITE FALLS,Caldwell,35.80446045,-81.42120745,,12,Activity Pending,PRLF Unit Supervisor,919-707-8333,ryan.channell@ncdenr.gov,FALSE,2023/09/11 00:00:00+00,https://edocs.deq.nc.gov/WasteManagement/Search.aspx?dbid=0&searchcommand={[WM]:[Program_ID]=%22*NONCD0000186*%22}
-81.37165619,35.86292009,3448,NONCD0000716,Charlie Little Rd ldfl,Dudley Shoals Rd,Granite Falls,CALDWELL,35.86292009,-81.37165619,,12,Activity Pending,PRLF Unit Supervisor,919-707-8333,ryan.channell@ncdenr.gov,FALSE,2023/09/11 00:00:00+00,https://edocs.deq.nc.gov/WasteManagement/Search.aspx?dbid=0&searchcommand={[WM]:[Program_ID]=%22*NONCD0000716*%22}
-81.36577556,35.8674790900001,3449,NONCD0000769,Dudley Shoals Rd ldfl,Dudley Shoals Rd,DUDLEY SHOALS,CALDWELL,35.86747909,-81.36577556,,12,Activity Pending,PRLF Unit Supervisor,919-707-8333,ryan.channell@ncdenr.gov,FALSE,2023/09/11 00:00:00+00,https://edocs.deq.nc.gov/WasteManagement/Search.aspx?dbid=0&searchcommand={[WM]:[Program_ID]=%22*NONCD0000769*%22}
-81.6238,35.8839,3450,NONCD0000195,Shew Refuse Disposal,SR 1143 W,lenoir,CALDWELL,35.8839,-81.6238,UNKNOWN,31,Activity Pending,PRLF Unit Supervisor,919-707-8333,ryan.channell@ncdenr.gov,FALSE,2023/09/11 00:00:00+00,https://edocs.deq.nc.gov/WasteManagement/Search.aspx?dbid=0&searchcommand={[WM]:[Program_ID]=%22*NONCD0000195*%22}
-76.12807256,36.30492723,3451,NONCD0000196,Newby's Trash Service Dump,South Mill Dam Road,Camden,Camden,36.30492723,-76.12807256,,12,Activity Pending,PRLF Unit Supervisor,919-707-8333,ryan.channell@ncdenr.gov,FALSE,2023/09/11 00:00:00+00,https://edocs.deq.nc.gov/WasteManagement/Search.aspx?dbid=0&searchcommand={[WM]:[Program_ID]=%22*NONCD0000196*%22}
-76.3291789799999,34.8895639200001,3452,NONCD0000199,Atlantic Refuse Dump,CORE SOUND LOOP ROAD,ATLANTIC,Carteret,34.88956392,-76.32917898,,12,Activity Pending,PRLF Unit Supervisor,919-707-8333,ryan.channell@ncdenr.gov,FALSE,2023/09/11 00:00:00+00,https://edocs.deq.nc.gov/WasteManagement/Search.aspx?dbid=0&searchcommand={[WM]:[Program_ID]=%22*NONCD0000199*%22}
-77.08192116,34.70025931,3453,NONCD0000213,Cape Carteret Dump,HOLLAND POINT ROAD,CAPE CARTERET,Carteret,34.70025931,-77.08192116,,12,Activity Pending,PRLF Unit Supervisor,919-707-8333,ryan.channell@ncdenr.gov,FALSE,2023/09/11 00:00:00+00,https://edocs.deq.nc.gov/WasteManagement/Search.aspx?dbid=0&searchcommand={[WM]:[Program_ID]=%22*NONCD0000213*%22}
-77.0049208999999,34.6701158000001,3454,NONCD0000212,Emerald Isle Dump,6712 EMERALD DRIVE,EMERALD ISLE,Carteret,34.6701158,-77.0049209,,12,Activity Pending,PRLF Unit Supervisor,919-707-8333,ryan.channell@ncdenr.gov,FALSE,2023/09/11 00:00:00+00,https://edocs.deq.nc.gov/WasteManagement/Search.aspx?dbid=0&searchcommand={[WM]:[Program_ID]=%22*NONCD0000212*%22}
-77.01113642,34.7081346000001,3455,NONCD0000211,Raynor Garbage Disposal Dump,264 BOGUE LOOP ROAD,BOGUE,Carteret,34.7081346,-77.01113642,,12,Activity Pending,PRLF Unit Supervisor,919-707-8333,ryan.channell@ncdenr.gov,FALSE,2023/09/11 00:00:00+00,https://edocs.deq.nc.gov/WasteManagement/Search.aspx?dbid=0&searchcommand={[WM]:[Program_ID]=%22*NONCD0000211*%22}
-76.3683838599999,34.8827343900001,3456,NONCD0000210,Winston Hill LF,WINSTON DRIVE,ATLANTIC,Carteret,34.88273439,-76.36838386,,12,Activity Pending,PRLF Unit Supervisor,919-707-8333,ryan.channell@ncdenr.gov,FALSE,2023/09/11 00:00:00+00,https://edocs.deq.nc.gov/WasteManagement/Search.aspx?dbid=0&searchcommand={[WM]:[Program_ID]=%22*NONCD0000210*%22}
-76.8830396399999,34.7536288800001,3457,NONCD0000209,Carteret County LF - Mount Russel,Landfill Rd.,Newport,Carteret,34.75362888,-76.88303964,,12,Activity Pending,PRLF Unit Supervisor,919-707-8333,ryan.channell@ncdenr.gov,FALSE,2023/09/11 00:00:00+00,https://edocs.deq.nc.gov/WasteManagement/Search.aspx?dbid=0&searchcommand={[WM]:[Program_ID]=%22*NONCD0000209*%22}
-76.5785509899999,34.7046431800001,3458,NONCD0000207,Harkers Island Refuse Disposal,WHALERS RIDGE SUBDIVISION,HARKERS ISLAND,Carteret,34.70464318,-76.57855099,,12,Activity Pending,PRLF Unit Supervisor,919-707-8333,ryan.channell@ncdenr.gov,FALSE,2023/09/11 00:00:00+00,https://edocs.deq.nc.gov/WasteManagement/Search.aspx?dbid=0&searchcommand={[WM]:[Program_ID]=%22*NONCD0000207*%22}
-76.416183,34.854726,3459,NONCD0000206,Stacy Refuse Dump,,stacy,Carteret,34.854726,-76.416183,GOOGLE MAPS,31,Activity Pending,PRLF Unit Supervisor,919-707-8333,ryan.channell@ncdenr.gov,FALSE,2023/09/11 00:00:00+00,https://edocs.deq.nc.gov/WasteManagement/Search.aspx?dbid=0&searchcommand={[WM]:[Program_ID]=%22*NONCD0000206*%22}
-76.73632452,34.7274934600001,3460,NONCD0000205,Morehead City Refuse Dump,25th Street,MOREHEAD CITY,Carteret,34.72749346,-76.73632452,,12,Activity Pending,PRLF Unit Supervisor,919-707-8333,ryan.channell@ncdenr.gov,FALSE,2023/09/11 00:00:00+00,https://edocs.deq.nc.gov/WasteManagement/Search.aspx?dbid=0&searchcommand={[WM]:[Program_ID]=%22*NONCD0000205*%22}
-76.7578046899999,34.77392037,3461,NONCD0000204,Mill Creek Refuse Dump,MILL CREEK ROAD (SR 1154),MILL CREEK,Carteret,34.77392037,-76.75780469,,12,Activity Pending,PRLF Unit Supervisor,919-707-8333,ryan.channell@ncdenr.gov,FALSE,2023/09/11 00:00:00+00,https://edocs.deq.nc.gov/WasteManagement/Search.aspx?dbid=0&searchcommand={[WM]:[Program_ID]=%22*NONCD0000204*%22}
-76.5136322399999,34.7349612200001,3462,NONCD0000203,Marshallberg Dump,SR 1348,MARSHALLBERG,Carteret,34.73496122,-76.51363224,,12,Activity Pending,PRLF Unit Supervisor,919-707-8333,ryan.channell@ncdenr.gov,FALSE,2023/09/11 00:00:00+00,https://edocs.deq.nc.gov/WasteManagement/Search.aspx?dbid=0&searchcommand={[WM]:[Program_ID]=%22*NONCD0000203*%22}
-79.23525953,36.4933137400001,3463,NONCD0000216,Caswell LF,Slaughter Rd. (SR 1555),Milton,Caswell,36.49331374,-79.23525953,,12,Activity Pending,PRLF Unit Supervisor,919-707-8333,ryan.channell@ncdenr.gov,FALSE,2023/09/11 00:00:00+00,https://edocs.deq.nc.gov/WasteManagement/Search.aspx?dbid=0&searchcommand={[WM]:[Program_ID]=%22*NONCD0000216*%22}
-79.33091498,36.38383586,3464,NONCD0000215,Miles Garbage Dump,Highway 62,Yanceyville,Caswell,36.38383586,-79.33091498,,12,Activity Pending,PRLF Unit Supervisor,919-707-8333,ryan.channell@ncdenr.gov,FALSE,2023/09/11 00:00:00+00,https://edocs.deq.nc.gov/WasteManagement/Search.aspx?dbid=0&searchcommand={[WM]:[Program_ID]=%22*NONCD0000215*%22}
-81.09601048,35.71003782,3465,NONCD0000217,Catawba Dump,Old Catawba Rd. (SR 1722),Clairmont,Catawba,35.71003782,-81.09601048,,12,Activity Pending,PRLF Unit Supervisor,919-707-8333,ryan.channell@ncdenr.gov,FALSE,2023/09/11 00:00:00+00,https://edocs.deq.nc.gov/WasteManagement/Search.aspx?dbid=0&searchcommand={[WM]:[Program_ID]=%22*NONCD0000217*%22}
-81.23423646,35.7241588300001,3466,NONCD0000218,Conover Dump,208 Herman Sipe Rd.,Conover,Catawba,35.72415883,-81.23423646,,12,Activity Pending,PRLF Unit Supervisor,919-707-8333,ryan.channell@ncdenr.gov,FALSE,2023/09/11 00:00:00+00,https://edocs.deq.nc.gov/WasteManagement/Search.aspx?dbid=0&searchcommand={[WM]:[Program_ID]=%22*NONCD0000218*%22}
-81.37190441,35.72159895,3467,NONCD0000219,Long View Refuse Dump,US Highway 70,Hickory,Catawba,35.72159895,-81.37190441,,12,Activity Pending,PRLF Unit Supervisor,919-707-8333,ryan.channell@ncdenr.gov,FALSE,2023/09/11 00:00:00+00,https://edocs.deq.nc.gov/WasteManagement/Search.aspx?dbid=0&searchcommand={[WM]:[Program_ID]=%22*NONCD0000219*%22}
-81.2278813299999,35.58245278,3468,NONCD0000220,Maiden Dump,South F Street,Maiden,Catawba,35.58245278,-81.22788133,,12,Activity Pending,PRLF Unit Supervisor,919-707-8333,ryan.channell@ncdenr.gov,FALSE,2023/09/11 00:00:00+00,https://edocs.deq.nc.gov/WasteManagement/Search.aspx?dbid=0&searchcommand={[WM]:[Program_ID]=%22*NONCD0000220*%22}
-81.24561176,35.65356159,3469,NONCD0000221,Newton Landfill,Boston Rd.,Newton,Catawba,35.65356159,-81.24561176,,12,Activity Pending,PRLF Unit Supervisor,919-707-8333,ryan.channell@ncdenr.gov,FALSE,2023/09/11 00:00:00+00,https://edocs.deq.nc.gov/WasteManagement/Search.aspx?dbid=0&searchcommand={[WM]:[Program_ID]=%22*NONCD0000221*%22}
-79.28474561,35.5801049400001,3470,NONCD0000227,Goldston Dump,St. Luke Church Road,GOLDSTON,Chatham,35.58010494,-79.28474561,,12,Activity Pending,PRLF Unit Supervisor,919-707-8333,ryan.channell@ncdenr.gov,FALSE,2023/09/11 00:00:00+00,https://edocs.deq.nc.gov/WasteManagement/Search.aspx?dbid=0&searchcommand={[WM]:[Program_ID]=%22*NONCD0000227*%22}
-79.16447891,35.73438185,3471,NONCD0000742,pittsboro dump,Pittsboro fire tower road,pittsboro,CHATHAM,35.73438185,-79.16447891,,12,Activity Pending,PRLF Unit Supervisor,919-707-8333,ryan.channell@ncdenr.gov,FALSE,2023/09/11 00:00:00+00,https://edocs.deq.nc.gov/WasteManagement/Search.aspx?dbid=0&searchcommand={[WM]:[Program_ID]=%22*NONCD0000742*%22}
-79.1647859,35.7711386,3472,NONCD0000224,Bynum Dump,Eddie Perry Road,BYNUM,Chatham,35.7711386,-79.1647859,,12,Activity Pending,PRLF Unit Supervisor,919-707-8333,ryan.channell@ncdenr.gov,FALSE,2023/09/11 00:00:00+00,https://edocs.deq.nc.gov/WasteManagement/Search.aspx?dbid=0&searchcommand={[WM]:[Program_ID]=%22*NONCD0000224*%22}
-79.4629668599999,35.75970719,3473,NONCD0000225,Siler City Dump,Water Plant Road,SILER CITY,Chatham,35.75970719,-79.46296686,,12,Activity Pending,PRLF Unit Supervisor,919-707-8333,ryan.channell@ncdenr.gov,FALSE,2023/09/11 00:00:00+00,https://edocs.deq.nc.gov/WasteManagement/Search.aspx?dbid=0&searchcommand={[WM]:[Program_ID]=%22*NONCD0000225*%22}
-84.24169971,35.1182473600001,3474,NONCD0000228,Lake Hiwassee Resort Dump,NC 294 West,Murphy,Cherokee,35.11824736,-84.24169971,,12,Activity Pending,PRLF Unit Supervisor,919-707-8333,ryan.channell@ncdenr.gov,FALSE,2023/09/11 00:00:00+00,https://edocs.deq.nc.gov/WasteManagement/Search.aspx?dbid=0&searchcommand={[WM]:[Program_ID]=%22*NONCD0000228*%22}
-83.83063348,35.1839429400001,3475,NONCD0000231,Andrews Dump,Connaheta Avenue,ANDREWS,Cherokee,35.18394294,-83.83063348,,12,Activity Pending,PRLF Unit Supervisor,919-707-8333,ryan.channell@ncdenr.gov,FALSE,2023/09/11 00:00:00+00,https://edocs.deq.nc.gov/WasteManagement/Search.aspx?dbid=0&searchcommand={[WM]:[Program_ID]=%22*NONCD0000231*%22}
-84.03842642,35.1000220600001,3476,NONCD0000230,Murphy Refuse Dump,Texana Road,MURPHY,Cherokee,35.10002206,-84.03842642,,12,Activity Pending,PRLF Unit Supervisor,919-707-8333,ryan.channell@ncdenr.gov,FALSE,2023/09/11 00:00:00+00,https://edocs.deq.nc.gov/WasteManagement/Search.aspx?dbid=0&searchcommand={[WM]:[Program_ID]=%22*NONCD0000230*%22}
-76.63079179,36.1931573900001,3477,NONCD0000234,Perquimans-Chowan LF,600 Sandy Ridge Road,TYNER,Chowan,36.19315739,-76.63079179,,12,Activity Pending,PRLF Unit Supervisor,919-707-8333,ryan.channell@ncdenr.gov,FALSE,2023/09/11 00:00:00+00,https://edocs.deq.nc.gov/WasteManagement/Search.aspx?dbid=0&searchcommand={[WM]:[Program_ID]=%22*NONCD0000234*%22}
-76.5661093699999,36.04798264,3478,NONCD0000233,Edenton Landfill,Off Poplar Neck Road,EDENTON,Chowan,36.04798264,-76.56610937,,12,Activity Pending,PRLF Unit Supervisor,919-707-8333,ryan.channell@ncdenr.gov,FALSE,2023/09/11 00:00:00+00,https://edocs.deq.nc.gov/WasteManagement/Search.aspx?dbid=0&searchcommand={[WM]:[Program_ID]=%22*NONCD0000233*%22}
-76.51646148,36.0606691200001,3479,NONCD0000232,J.W. Bradley Dump,206 Oak Grove Road,EDENTON,Chowan,36.06066912,-76.51646148,,12,Activity Pending,PRLF Unit Supervisor,919-707-8333,ryan.channell@ncdenr.gov,FALSE,2023/09/11 00:00:00+00,https://edocs.deq.nc.gov/WasteManagement/Search.aspx?dbid=0&searchcommand={[WM]:[Program_ID]=%22*NONCD0000232*%22}
-81.3480910499999,35.2105784300001,3480,NONCD0000239,Kings Mtn. Dump,Industrial Dr. (SR 2312),Kings Mountain,Cleveland,35.21057843,-81.34809105,,12,Activity Pending,PRLF Unit Supervisor,919-707-8333,ryan.channell@ncdenr.gov,FALSE,2023/09/11 00:00:00+00,https://edocs.deq.nc.gov/WasteManagement/Search.aspx?dbid=0&searchcommand={[WM]:[Program_ID]=%22*NONCD0000239*%22}
-81.64723517,35.41582013,3481,NONCD0000248,Polkville Dump,2606 W. Staggecoash Trail,Polkville,Cleveland,35.41582013,-81.64723517,,12,Activity Pending,PRLF Unit Supervisor,919-707-8333,ryan.channell@ncdenr.gov,FALSE,2023/09/11 00:00:00+00,https://edocs.deq.nc.gov/WasteManagement/Search.aspx?dbid=0&searchcommand={[WM]:[Program_ID]=%22*NONCD0000248*%22}
-81.4468017999999,35.2589384400001,3482,NONCD0000675,Kings Mountain Landfill,200 Potts Creek Rd.,Kings Mountain,Cleveland,35.25893844,-81.4468018,,12,Activity Pending,PRLF Unit Supervisor,919-707-8333,ryan.channell@ncdenr.gov,FALSE,2023/09/11 00:00:00+00,https://edocs.deq.nc.gov/WasteManagement/Search.aspx?dbid=0&searchcommand={[WM]:[Program_ID]=%22*NONCD0000675*%22}
-81.4339726699999,35.36375187,3483,NONCD0000243,Waco Dump,143 Stroup Rd.,Waco,Cleveland,35.36375187,-81.43397267,,12,Activity Pending,PRLF Unit Supervisor,919-707-8333,ryan.channell@ncdenr.gov,FALSE,2023/09/11 00:00:00+00,https://edocs.deq.nc.gov/WasteManagement/Search.aspx?dbid=0&searchcommand={[WM]:[Program_ID]=%22*NONCD0000243*%22}
-81.48120076,35.3263641300001,3484,NONCD0000699,City of Shelby Landfill (Stubbs),Airport Rd.,Stubbs,Cleveland,35.32636413,-81.48120076,,12,Activity Pending,PRLF Unit Supervisor,919-707-8333,ryan.channell@ncdenr.gov,FALSE,2023/09/11 00:00:00+00,https://edocs.deq.nc.gov/WasteManagement/Search.aspx?dbid=0&searchcommand={[WM]:[Program_ID]=%22*NONCD0000699*%22}
-81.61869107,35.30534363,3485,NONCD0000236,E.Z. Sanitation Dump,Plato Lee Rd. (SR 1315),Lattimore,Cleveland,35.30534363,-81.61869107,,12,Activity Pending,PRLF Unit Supervisor,919-707-8333,ryan.channell@ncdenr.gov,FALSE,2023/09/11 00:00:00+00,https://edocs.deq.nc.gov/WasteManagement/Search.aspx?dbid=0&searchcommand={[WM]:[Program_ID]=%22*NONCD0000236*%22}
-81.4016189,35.3301595900001,3486,NONCD0000250,Cherryville Dump,Thompson Dr.,Cherryville,Cleveland,35.33015959,-81.4016189,,12,Activity Pending,PRLF Unit Supervisor,919-707-8333,ryan.channell@ncdenr.gov,FALSE,2023/09/11 00:00:00+00,https://edocs.deq.nc.gov/WasteManagement/Search.aspx?dbid=0&searchcommand={[WM]:[Program_ID]=%22*NONCD0000250*%22}
-81.4963782299999,35.4419417400001,3487,NONCD0000238,Upper Cleveland Dump,Buck Haven Court,Fallston,Cleveland,35.44194174,-81.49637823,,12,Activity Pending,PRLF Unit Supervisor,919-707-8333,ryan.channell@ncdenr.gov,FALSE,2023/09/11 00:00:00+00,https://edocs.deq.nc.gov/WasteManagement/Search.aspx?dbid=0&searchcommand={[WM]:[Program_ID]=%22*NONCD0000238*%22}
-81.5616507,35.3042013400001,3488,NCD986176451,City of Shelby LF,West Grove Street,Shelby,Cleveland,35.30420134,-81.5616507,,12,Activity Pending,PRLF Unit Supervisor,919-707-8333,ryan.channell@ncdenr.gov,FALSE,2023/09/11 00:00:00+00,https://edocs.deq.nc.gov/WasteManagement/Search.aspx?dbid=0&searchcommand={[WM]:[Program_ID]=%22*NCD986176451*%22}
-81.50367868,35.2055004800001,3489,NONCD0000249,Patterson Springs Dump,Jeter Rd. (SR 2212),Earl,Cleveland,35.20550048,-81.50367868,,12,Activity Pending,PRLF Unit Supervisor,919-707-8333,ryan.channell@ncdenr.gov,FALSE,2023/09/11 00:00:00+00,https://edocs.deq.nc.gov/WasteManagement/Search.aspx?dbid=0&searchcommand={[WM]:[Program_ID]=%22*NONCD0000249*%22}
-81.34695923,35.2593832000001,3490,NONCD0000803,Kings Mountain Landfill #2,North Cansler Street,Kings Mountain,CLEVELAND,35.2593832,-81.34695923,,12,Activity Pending,PRLF Unit Supervisor,919-707-8333,ryan.channell@ncdenr.gov,FALSE,2023/09/11 00:00:00+00,https://edocs.deq.nc.gov/WasteManagement/Search.aspx?dbid=0&searchcommand={[WM]:[Program_ID]=%22*NONCD0000803*%22}
-81.64892876,35.3147135400001,3491,NONCD0000237,Lattimore Dump,3847 Artee Rd. (SR 1314),Lattimore,Cleveland,35.31471354,-81.64892876,,12,Activity Pending,PRLF Unit Supervisor,919-707-8333,ryan.channell@ncdenr.gov,FALSE,2023/09/11 00:00:00+00,https://edocs.deq.nc.gov/WasteManagement/Search.aspx?dbid=0&searchcommand={[WM]:[Program_ID]=%22*NONCD0000237*%22}
-81.68642098,35.2636671000001,3492,NONCD0000241,Boiling Springs Dump,Clearwater Rd.,Boiling Springs,Cleveland,35.2636671,-81.68642098,,12,Activity Pending,PRLF Unit Supervisor,919-707-8333,ryan.channell@ncdenr.gov,FALSE,2023/09/11 00:00:00+00,https://edocs.deq.nc.gov/WasteManagement/Search.aspx?dbid=0&searchcommand={[WM]:[Program_ID]=%22*NONCD0000241*%22}
-78.87252617,34.2045843700001,3493,NONCD0000257,Tabor City Dump,HINSON TRAIL,TABOR CITY,Columbus,34.20458437,-78.87252617,,12,Activity Pending,PRLF Unit Supervisor,919-707-8333,ryan.channell@ncdenr.gov,FALSE,2023/09/11 00:00:00+00,https://edocs.deq.nc.gov/WasteManagement/Search.aspx?dbid=0&searchcommand={[WM]:[Program_ID]=%22*NONCD0000257*%22}
-78.25641921,34.34012383,3494,NONCD0000251,Riegelwood Dump,Sand Hole Road (SR 1846),RIEGELWOOD,Columbus,34.34012383,-78.25641921,,12,Activity Pending,PRLF Unit Supervisor,919-707-8333,ryan.channell@ncdenr.gov,FALSE,2023/09/11 00:00:00+00,https://edocs.deq.nc.gov/WasteManagement/Search.aspx?dbid=0&searchcommand={[WM]:[Program_ID]=%22*NONCD0000251*%22}
-78.6947570999999,34.3196967600001,3495,NONCD0000256,Whiteville Dump,MILL STREET,WHITEVILLE,Columbus,34.31969676,-78.6947571,,12,Activity Pending,PRLF Unit Supervisor,919-707-8333,ryan.channell@ncdenr.gov,FALSE,2023/09/11 00:00:00+00,https://edocs.deq.nc.gov/WasteManagement/Search.aspx?dbid=0&searchcommand={[WM]:[Program_ID]=%22*NONCD0000256*%22}
-78.82653493,34.30690693,3496,NONCD0000254,Chadbourn Dump,BROWN STREET (NC 410),CHADBOURN,Columbus,34.30690693,-78.82653493,,12,Activity Pending,PRLF Unit Supervisor,919-707-8333,ryan.channell@ncdenr.gov,FALSE,2023/09/11 00:00:00+00,https://edocs.deq.nc.gov/WasteManagement/Search.aspx?dbid=0&searchcommand={[WM]:[Program_ID]=%22*NONCD0000254*%22}
-78.41273605,34.30791707,3497,NONCD0000252,Bolton Dump,TRAM ROAD,BOLTON,Columbus,34.30791707,-78.41273605,,12,Activity Pending,PRLF Unit Supervisor,919-707-8333,ryan.channell@ncdenr.gov,FALSE,2023/09/11 00:00:00+00,https://edocs.deq.nc.gov/WasteManagement/Search.aspx?dbid=0&searchcommand={[WM]:[Program_ID]=%22*NONCD0000252*%22}
-78.55146949,34.2932645000001,3498,NONCD0000253,Lake Waccamaw Dump,DUPREE LANDING ROAD,LAKE WACCAMAW,Columbus,34.2932645,-78.55146949,,12,Activity Pending,PRLF Unit Supervisor,919-707-8333,ryan.channell@ncdenr.gov,FALSE,2023/09/11 00:00:00+00,https://edocs.deq.nc.gov/WasteManagement/Search.aspx?dbid=0&searchcommand={[WM]:[Program_ID]=%22*NONCD0000253*%22}
-78.65379539,34.37397208,3499,NONCD0000715,Rhone ANDERSON LDFL,OAK TREE LANE,WHITEVILLE,COLUMBUS,34.37397208,-78.65379539,,12,Activity Pending,PRLF Unit Supervisor,919-707-8333,ryan.channell@ncdenr.gov,FALSE,2023/09/11 00:00:00+00,https://edocs.deq.nc.gov/WasteManagement/Search.aspx?dbid=0&searchcommand={[WM]:[Program_ID]=%22*NONCD0000715*%22}
-77.41696143,35.2112999400001,3500,NONCD0000259,Dover Refuse Dump,13530 Old US 70,DOVER,Craven,35.21129994,-77.41696143,,12,Activity Pending,PRLF Unit Supervisor,919-707-8333,ryan.channell@ncdenr.gov,FALSE,2023/09/11 00:00:00+00,https://edocs.deq.nc.gov/WasteManagement/Search.aspx?dbid=0&searchcommand={[WM]:[Program_ID]=%22*NONCD0000259*%22}
-77.14289596,35.3069677300001,3501,NONCD0000260,Vanceboro Dump,SR 1637,Vanceboro,Craven,35.30696773,-77.14289596,,12,Activity Pending,PRLF Unit Supervisor,919-707-8333,ryan.channell@ncdenr.gov,FALSE,2023/09/11 00:00:00+00,https://edocs.deq.nc.gov/WasteManagement/Search.aspx?dbid=0&searchcommand={[WM]:[Program_ID]=%22*NONCD0000260*%22}
-76.9494214599999,34.9364607700001,3502,NONCD0000261,Craven County,US Hwy 70,Havelock,Craven,34.93646077,-76.94942146,,12,Activity Pending,PRLF Unit Supervisor,919-707-8333,ryan.channell@ncdenr.gov,FALSE,2023/09/11 00:00:00+00,https://edocs.deq.nc.gov/WasteManagement/Search.aspx?dbid=0&searchcommand={[WM]:[Program_ID]=%22*NONCD0000261*%22}
-77.05984681,35.09830644,3503,NONCD0000263,New Bern Sanitary Dump,US Hwy. 70 and Pembroke Road,NEW BERN,Craven,35.09830644,-77.05984681,,12,Activity Pending,PRLF Unit Supervisor,919-707-8333,ryan.channell@ncdenr.gov,FALSE,2023/09/11 00:00:00+00,https://edocs.deq.nc.gov/WasteManagement/Search.aspx?dbid=0&searchcommand={[WM]:[Program_ID]=%22*NONCD0000263*%22}
-77.17469798,35.28274728,3504,NONCD0000262,Vanceboro Landfill,Old Landfill Road,VANCEBORO,Craven,35.28274728,-77.17469798,,12,Activity Pending,PRLF Unit Supervisor,919-707-8333,ryan.channell@ncdenr.gov,FALSE,2023/09/11 00:00:00+00,https://edocs.deq.nc.gov/WasteManagement/Search.aspx?dbid=0&searchcommand={[WM]:[Program_ID]=%22*NONCD0000262*%22}
-79.03851803,35.0605500200001,3505,NONCD0000733,Cumberland County Landfill - Bones Creek,Winward Cove Rd.,Fayetteville,Cumberland,35.06055002,-79.03851803,,12,Activity Pending,PRLF Unit Supervisor,919-707-8333,ryan.channell@ncdenr.gov,FALSE,2023/09/11 00:00:00+00,https://edocs.deq.nc.gov/WasteManagement/Search.aspx?dbid=0&searchcommand={[WM]:[Program_ID]=%22*NONCD0000733*%22}
-78.92078782,35.1073531600001,3506,NONCD0000734,Cumberland County Landfill - Trailer Town,Distribution Dr.,Fayetteville,Cumberland,35.10735316,-78.92078782,,12,Activity Pending,PRLF Unit Supervisor,919-707-8333,ryan.channell@ncdenr.gov,FALSE,2023/09/11 00:00:00+00,https://edocs.deq.nc.gov/WasteManagement/Search.aspx?dbid=0&searchcommand={[WM]:[Program_ID]=%22*NONCD0000734*%22}
-78.8899641199999,34.98380739,3507,NONCD0000267,Fayetteville City LF,Claude Lee Rd.,Fayetteville,Cumberland,34.98380739,-78.88996412,,12,Activity Pending,PRLF Unit Supervisor,919-707-8333,ryan.channell@ncdenr.gov,FALSE,2023/09/11 00:00:00+00,https://edocs.deq.nc.gov/WasteManagement/Search.aspx?dbid=0&searchcommand={[WM]:[Program_ID]=%22*NONCD0000267*%22}
-78.95011336,34.95952501,3508,NONCD0000264,Hope Mills Dump,Cecily Circle,Hope Mills,Cumberland,34.95952501,-78.95011336,,12,Activity Pending,PRLF Unit Supervisor,919-707-8333,ryan.channell@ncdenr.gov,FALSE,2023/09/11 00:00:00+00,https://edocs.deq.nc.gov/WasteManagement/Search.aspx?dbid=0&searchcommand={[WM]:[Program_ID]=%22*NONCD0000264*%22}
-78.8571251399999,35.05927265,3509,NCD980502934,Fayetteville LDFL,North Eastern Blvd.,Fayetteville,Cumberland,35.05927265,-78.85712514,,12,Activity Pending,PRLF Unit Supervisor,919-707-8333,ryan.channell@ncdenr.gov,FALSE,2023/09/11 00:00:00+00,https://edocs.deq.nc.gov/WasteManagement/Search.aspx?dbid=0&searchcommand={[WM]:[Program_ID]=%22*NCD980502934*%22}
-78.9948446399999,34.9631231600001,3510,NCD980502983,Hope Mills Landfill,1 mile south of SR 1003 (Wire Rd.),Hope Mills,Cumberland,34.96312316,-78.99484464,,12,Activity Pending,PRLF Unit Supervisor,919-707-8333,ryan.channell@ncdenr.gov,FALSE,2023/09/11 00:00:00+00,https://edocs.deq.nc.gov/WasteManagement/Search.aspx?dbid=0&searchcommand={[WM]:[Program_ID]=%22*NCD980502983*%22}
-78.6210857,34.9491136300001,3511,NONCD0000736,Cumberland County Landfill - Beaver Dam,NC 210,Autryville,Cumberland,34.94911363,-78.6210857,,12,Activity Pending,PRLF Unit Supervisor,919-707-8333,ryan.channell@ncdenr.gov,FALSE,2023/09/11 00:00:00+00,https://edocs.deq.nc.gov/WasteManagement/Search.aspx?dbid=0&searchcommand={[WM]:[Program_ID]=%22*NONCD0000736*%22}
-78.9224752499999,35.1094096300001,3512,NONCD0000266,Lieber Sanitation Dump,Shaw Mill Rd.,Fayetteville,Cumberland,35.10940963,-78.92247525,,12,Activity Pending,PRLF Unit Supervisor,919-707-8333,ryan.channell@ncdenr.gov,FALSE,2023/09/11 00:00:00+00,https://edocs.deq.nc.gov/WasteManagement/Search.aspx?dbid=0&searchcommand={[WM]:[Program_ID]=%22*NONCD0000266*%22}
-78.97490964,35.05004224,3513,NONCD0000725,Lewis Chapel School Rubble Stump Site,Skibo Rd. (US 401 Bypass),Fayetteville,Cumberland,35.05004224,-78.97490964,,12,Activity Pending,PRLF Unit Supervisor,919-707-8333,ryan.channell@ncdenr.gov,FALSE,2023/09/11 00:00:00+00,https://edocs.deq.nc.gov/WasteManagement/Search.aspx?dbid=0&searchcommand={[WM]:[Program_ID]=%22*NONCD0000725*%22}
-78.89048645,35.01905613,3514,NONCD0000740,City of Fayetteville Landfill #2,Wilkes Rd. (SR 2210),Fayetteville,Cumberland,35.01905613,-78.89048645,,12,Activity Pending,PRLF Unit Supervisor,919-707-8333,ryan.channell@ncdenr.gov,FALSE,2023/09/11 00:00:00+00,https://edocs.deq.nc.gov/WasteManagement/Search.aspx?dbid=0&searchcommand={[WM]:[Program_ID]=%22*NONCD0000740*%22}
-75.85072127,36.11853604,3515,NONCD0000269,Independent Trash Service Dump,SR 1112,MAMIE,Currituck,36.11853604,-75.85072127,,12,Activity Pending,PRLF Unit Supervisor,919-707-8333,ryan.channell@ncdenr.gov,FALSE,2023/09/11 00:00:00+00,https://edocs.deq.nc.gov/WasteManagement/Search.aspx?dbid=0&searchcommand={[WM]:[Program_ID]=%22*NONCD0000269*%22}
-75.6945793799999,36.01204031,3516,NONCD0000271,Kill Devils Hills Dump,1541 Colington Road,KILL DEVIL HILLS,Dare,36.01204031,-75.69457938,,12,Activity Pending,PRLF Unit Supervisor,919-707-8333,ryan.channell@ncdenr.gov,FALSE,2023/09/11 00:00:00+00,https://edocs.deq.nc.gov/WasteManagement/Search.aspx?dbid=0&searchcommand={[WM]:[Program_ID]=%22*NONCD0000271*%22}
-75.5414606799999,35.26834925,3517,NONCD0000273,Jennette's Dump,NC Hwy. 12,BUXTON,Dare,35.26834925,-75.54146068,,12,Activity Pending,PRLF Unit Supervisor,919-707-8333,ryan.channell@ncdenr.gov,FALSE,2023/09/11 00:00:00+00,https://edocs.deq.nc.gov/WasteManagement/Search.aspx?dbid=0&searchcommand={[WM]:[Program_ID]=%22*NONCD0000273*%22}
-75.5356834299999,35.2650630300001,3518,NONCD0000765,BUXTON DUMP TWO,47371 Buxton Back Road,BUXTON,DARE,35.26506303,-75.53568343,,12,Activity Pending,PRLF Unit Supervisor,919-707-8333,ryan.channell@ncdenr.gov,FALSE,2023/09/11 00:00:00+00,https://edocs.deq.nc.gov/WasteManagement/Search.aspx?dbid=0&searchcommand={[WM]:[Program_ID]=%22*NONCD0000765*%22}
-80.44787294,35.82029119,3519,NONCD0000676,W DAVIDSON CO LDFL,3104 Horseshoe Neck Road,Lexington,DAVIDSON,35.82029119,-80.44787294,,12,Activity Pending,PRLF Unit Supervisor,919-707-8333,ryan.channell@ncdenr.gov,FALSE,2023/09/11 00:00:00+00,https://edocs.deq.nc.gov/WasteManagement/Search.aspx?dbid=0&searchcommand={[WM]:[Program_ID]=%22*NONCD0000676*%22}
-80.05768994,35.9933777100001,3520,NONCD0000652,WHEELERS SAND ROCK PIT DUMP,1001 Westover Dr,High Point,DAVIDSON,35.99337771,-80.05768994,,12,Activity Pending,PRLF Unit Supervisor,919-707-8333,ryan.channell@ncdenr.gov,FALSE,2023/09/11 00:00:00+00,https://edocs.deq.nc.gov/WasteManagement/Search.aspx?dbid=0&searchcommand={[WM]:[Program_ID]=%22*NONCD0000652*%22}
-80.17327627,35.8389100700001,3521,NONCD0000509,Scarlett landfill,Landfill Rd,Holly Grove,Davidson,35.83891007,-80.17327627,,12,Activity Pending,PRLF Unit Supervisor,919-707-8333,ryan.channell@ncdenr.gov,FALSE,2023/09/11 00:00:00+00,https://edocs.deq.nc.gov/WasteManagement/Search.aspx?dbid=0&searchcommand={[WM]:[Program_ID]=%22*NONCD0000509*%22}
-80.15942907,35.65919252,3522,NONCD0000276,Denton Landfill,Summverville Church Rd,DENTON,Davidson,35.65919252,-80.15942907,,12,Activity Pending,PRLF Unit Supervisor,919-707-8333,ryan.channell@ncdenr.gov,FALSE,2023/09/11 00:00:00+00,https://edocs.deq.nc.gov/WasteManagement/Search.aspx?dbid=0&searchcommand={[WM]:[Program_ID]=%22*NONCD0000276*%22}
-80.12480414,35.6307437200001,3523,NONCD0000791,Nicoma Park,Nicoma Subdivision,Denton,Davidson,35.63074372,-80.12480414,,12,Activity Pending,PRLF Unit Supervisor,919-707-8333,ryan.channell@ncdenr.gov,FALSE,2023/09/11 00:00:00+00,https://edocs.deq.nc.gov/WasteManagement/Search.aspx?dbid=0&searchcommand={[WM]:[Program_ID]=%22*NONCD0000791*%22}
-80.14580724,35.6488468900001,3524,NONCD0000275,Denton Dump,Grubb Dr,DENTON,Davidson,35.64884689,-80.14580724,,12,Activity Pending,PRLF Unit Supervisor,919-707-8333,ryan.channell@ncdenr.gov,FALSE,2023/09/11 00:00:00+00,https://edocs.deq.nc.gov/WasteManagement/Search.aspx?dbid=0&searchcommand={[WM]:[Program_ID]=%22*NONCD0000275*%22}
-80.1446651099999,35.6477398500001,3525,NONCD0000277,Denton-Grubb Dr Landfill,Grubb Dr,DENTON,Davidson,35.64773985,-80.14466511,,12,Activity Pending,PRLF Unit Supervisor,919-707-8333,ryan.channell@ncdenr.gov,FALSE,2023/09/11 00:00:00+00,https://edocs.deq.nc.gov/WasteManagement/Search.aspx?dbid=0&searchcommand={[WM]:[Program_ID]=%22*NONCD0000277*%22}
-80.6212008699999,35.9097940500001,3526,NONCD0000280,Clement Refuse Dump,walker road,MOCKSVILLE,Davie,35.90979405,-80.62120087,,12,Activity Pending,PRLF Unit Supervisor,919-707-8333,ryan.channell@ncdenr.gov,FALSE,2023/09/11 00:00:00+00,https://edocs.deq.nc.gov/WasteManagement/Search.aspx?dbid=0&searchcommand={[WM]:[Program_ID]=%22*NONCD0000280*%22}
-80.51859519,35.88086279,3527,NONCD0000279,Dalton Refuse Dump,Dalton Road (SR 1605),MOCKSVILLE,Davie,35.88086279,-80.51859519,,12,Activity Pending,PRLF Unit Supervisor,919-707-8333,ryan.channell@ncdenr.gov,FALSE,2023/09/11 00:00:00+00,https://edocs.deq.nc.gov/WasteManagement/Search.aspx?dbid=0&searchcommand={[WM]:[Program_ID]=%22*NONCD0000279*%22}
-78.09077321,35.0156802600001,3528,NONCD0000285,Warsaw Dump,WORKS FARM ROAD (SR1346),WARSAW,Duplin,35.01568026,-78.09077321,,12,Activity Pending,PRLF Unit Supervisor,919-707-8333,ryan.channell@ncdenr.gov,FALSE,2023/09/11 00:00:00+00,https://edocs.deq.nc.gov/WasteManagement/Search.aspx?dbid=0&searchcommand={[WM]:[Program_ID]=%22*NONCD0000285*%22}
-77.9759438999999,34.71926096,3529,NONCD0000288,Wallace Dump,WASTE TREATMENT PLANT RD,WALLACE,Duplin,34.71926096,-77.9759439,,12,Activity Pending,PRLF Unit Supervisor,919-707-8333,ryan.channell@ncdenr.gov,FALSE,2023/09/11 00:00:00+00,https://edocs.deq.nc.gov/WasteManagement/Search.aspx?dbid=0&searchcommand={[WM]:[Program_ID]=%22*NONCD0000288*%22}
-77.7893755699999,34.9491031200001,3530,NONCD0000283,Beulaville Dump,HWY 111,BEULAVILLE,Duplin,34.94910312,-77.78937557,,12,Activity Pending,PRLF Unit Supervisor,919-707-8333,ryan.channell@ncdenr.gov,FALSE,2023/09/11 00:00:00+00,https://edocs.deq.nc.gov/WasteManagement/Search.aspx?dbid=0&searchcommand={[WM]:[Program_ID]=%22*NONCD0000283*%22}
-78.02966887,34.81842563,3531,NONCD0000281,Rose Hill Dump,LAKE TUT ROAD (SR 1146),ROSE HILL,Duplin,34.81842563,-78.02966887,,12,Activity Pending,PRLF Unit Supervisor,919-707-8333,ryan.channell@ncdenr.gov,FALSE,2023/09/11 00:00:00+00,https://edocs.deq.nc.gov/WasteManagement/Search.aspx?dbid=0&searchcommand={[WM]:[Program_ID]=%22*NONCD0000281*%22}
-77.9741448999999,34.9633212800001,3532,NONCD0000282,Kenansville Dump,CHURCH STREET,KENANSVILLE,Duplin,34.96332128,-77.9741449,,12,Activity Pending,PRLF Unit Supervisor,919-707-8333,ryan.channell@ncdenr.gov,FALSE,2023/09/11 00:00:00+00,https://edocs.deq.nc.gov/WasteManagement/Search.aspx?dbid=0&searchcommand={[WM]:[Program_ID]=%22*NONCD0000282*%22}
-78.05801059,34.8729685100001,3533,NONCD0000286,Magnolia Dump,NASH JOHNSON'S POND RD (SR 1103),MAGNOLIA,Duplin,34.87296851,-78.05801059,,12,Activity Pending,PRLF Unit Supervisor,919-707-8333,ryan.channell@ncdenr.gov,FALSE,2023/09/11 00:00:00+00,https://edocs.deq.nc.gov/WasteManagement/Search.aspx?dbid=0&searchcommand={[WM]:[Program_ID]=%22*NONCD0000286*%22}
-78.12081963,35.0951555600001,3534,NONCD0000287,Faison Dump,TAYLOR TOWN ROAD (SR 1354),FAISON,Duplin,35.09515556,-78.12081963,,12,Activity Pending,PRLF Unit Supervisor,919-707-8333,ryan.channell@ncdenr.gov,FALSE,2023/09/11 00:00:00+00,https://edocs.deq.nc.gov/WasteManagement/Search.aspx?dbid=0&searchcommand={[WM]:[Program_ID]=%22*NONCD0000287*%22}
-78.8248268299999,36.01942553,3535,NONCD0000785,MITCHELL FARM,CHEEK RD,DURHAM,DURHAM,36.01942553,-78.82482683,,12,Activity Pending,PRLF Unit Supervisor,919-707-8333,ryan.channell@ncdenr.gov,FALSE,2023/09/11 00:00:00+00,https://edocs.deq.nc.gov/WasteManagement/Search.aspx?dbid=0&searchcommand={[WM]:[Program_ID]=%22*NONCD0000785*%22}
-78.86607265,36.02064033,3536,NONCD0000291,Durham Land Disposal Area,1833 CAMDEN AVE,DURHAM,Durham,36.02064033,-78.86607265,,12,Activity Pending,PRLF Unit Supervisor,919-707-8333,ryan.channell@ncdenr.gov,FALSE,2023/09/11 00:00:00+00,https://edocs.deq.nc.gov/WasteManagement/Search.aspx?dbid=0&searchcommand={[WM]:[Program_ID]=%22*NONCD0000291*%22}
-78.78583515,36.05548593,3537,NONCD0000290,Old Durham County LF,Electra Road,Durham,Durham,36.05548593,-78.78583515,,12,Activity Pending,PRLF Unit Supervisor,919-707-8333,ryan.channell@ncdenr.gov,FALSE,2023/09/11 00:00:00+00,https://edocs.deq.nc.gov/WasteManagement/Search.aspx?dbid=0&searchcommand={[WM]:[Program_ID]=%22*NONCD0000290*%22}
-77.4788549,35.8118356300001,3538,NONCD0000295,Conetoe Refuse Disposal Area,NC Highway 42,Conetoe,Edgecombe,35.81183563,-77.4788549,,12,Activity Pending,PRLF Unit Supervisor,919-707-8333,ryan.channell@ncdenr.gov,FALSE,2023/09/11 00:00:00+00,https://edocs.deq.nc.gov/WasteManagement/Search.aspx?dbid=0&searchcommand={[WM]:[Program_ID]=%22*NONCD0000295*%22}
-77.6703059499999,35.74341228,3539,NONCD0000296,Macclesfield Dump,South Fountain Road (SR 1109),Macclesfield,Edgecombe,35.74341228,-77.67030595,,12,Activity Pending,PRLF Unit Supervisor,919-707-8333,ryan.channell@ncdenr.gov,FALSE,2023/09/11 00:00:00+00,https://edocs.deq.nc.gov/WasteManagement/Search.aspx?dbid=0&searchcommand={[WM]:[Program_ID]=%22*NONCD0000296*%22}
-77.6795428899999,35.7953358,3540,NONCD0000298,Pinetops Refuse Dump,Temperance Hall Road (SR 1124),Pinetops,Edgecombe,35.7953358,-77.67954289,,12,Activity Pending,PRLF Unit Supervisor,919-707-8333,ryan.channell@ncdenr.gov,FALSE,2023/09/11 00:00:00+00,https://edocs.deq.nc.gov/WasteManagement/Search.aspx?dbid=0&searchcommand={[WM]:[Program_ID]=%22*NONCD0000298*%22}
-77.7791200899999,35.9551707100001,3541,NONCD0000299,Old Rocky Mount LF,Leggett Road,Rocky Mount,Edgecombe,35.95517071,-77.77912009,,12,Activity Pending,PRLF Unit Supervisor,919-707-8333,ryan.channell@ncdenr.gov,FALSE,2023/09/11 00:00:00+00,https://edocs.deq.nc.gov/WasteManagement/Search.aspx?dbid=0&searchcommand={[WM]:[Program_ID]=%22*NONCD0000299*%22}
-77.7275947099999,35.9634238400001,3542,NONCD0000710,ROCKY MOUNT LDFL (LIEBERS),Gay Road (SR1268),Rocky Mount,EDGECOMBE,35.96342384,-77.72759471,,12,Activity Pending,PRLF Unit Supervisor,919-707-8333,ryan.channell@ncdenr.gov,FALSE,2023/09/11 00:00:00+00,https://edocs.deq.nc.gov/WasteManagement/Search.aspx?dbid=0&searchcommand={[WM]:[Program_ID]=%22*NONCD0000710*%22}
-80.3372098899999,36.06343902,3543,NONCD0000300,Building Rubble LF,918 HAZELWOOD DR,Winston-Salem,Forsyth,36.06343902,-80.33720989,,12,Activity Pending,PRLF Unit Supervisor,919-707-8333,ryan.channell@ncdenr.gov,FALSE,2023/09/11 00:00:00+00,https://edocs.deq.nc.gov/WasteManagement/Search.aspx?dbid=0&searchcommand={[WM]:[Program_ID]=%22*NONCD0000300*%22}
-80.2989162,36.0396511500001,3544,NONCD0000308,City of Winston-Salem LF,Ebert St,WINSTON-SALEM,Forsyth,36.03965115,-80.2989162,,12,Activity Pending,PRLF Unit Supervisor,919-707-8333,ryan.channell@ncdenr.gov,FALSE,2023/09/11 00:00:00+00,https://edocs.deq.nc.gov/WasteManagement/Search.aspx?dbid=0&searchcommand={[WM]:[Program_ID]=%22*NONCD0000308*%22}
-80.20779258,36.0544659500001,3545,NONCD0000306,Buddy Robins Landfill,3459 Thomasville Rd,Winston-Salem,Forsyth,36.05446595,-80.20779258,,12,Activity Pending,PRLF Unit Supervisor,919-707-8333,ryan.channell@ncdenr.gov,FALSE,2023/09/11 00:00:00+00,https://edocs.deq.nc.gov/WasteManagement/Search.aspx?dbid=0&searchcommand={[WM]:[Program_ID]=%22*NONCD0000306*%22}
-80.0711179199999,36.1108990600001,3546,NONCD0000303,Kernersville Dump,720 McKauhan St,KERNERSVILLE,Forsyth,36.11089906,-80.07111792,,12,Activity Pending,PRLF Unit Supervisor,919-707-8333,ryan.channell@ncdenr.gov,FALSE,2023/09/11 00:00:00+00,https://edocs.deq.nc.gov/WasteManagement/Search.aspx?dbid=0&searchcommand={[WM]:[Program_ID]=%22*NONCD0000303*%22}
-80.29895386,35.9985946100001,3547,NONCD0000302,Beckel Road Dump,4974 BECKEL RD,WINSTON-SALEM,Forsyth,35.99859461,-80.29895386,,12,Activity Pending,PRLF Unit Supervisor,919-707-8333,ryan.channell@ncdenr.gov,FALSE,2023/09/11 00:00:00+00,https://edocs.deq.nc.gov/WasteManagement/Search.aspx?dbid=0&searchcommand={[WM]:[Program_ID]=%22*NONCD0000302*%22}
-80.29818124,36.2104106,3548,NONCD0000301,County Garbage Landfill,645 Montroyal Rd,Rural Hall,Forsyth,36.2104106,-80.29818124,,12,Activity Pending,PRLF Unit Supervisor,919-707-8333,ryan.channell@ncdenr.gov,FALSE,2023/09/11 00:00:00+00,https://edocs.deq.nc.gov/WasteManagement/Search.aspx?dbid=0&searchcommand={[WM]:[Program_ID]=%22*NONCD0000301*%22}
-80.22637427,36.03992286,3549,NONCD0000743,CITY OF WINSTON-SALEM,OVERDALE RD,WINSTON-SALEM,FORSYTH,36.03992286,-80.22637427,,12,Activity Pending,PRLF Unit Supervisor,919-707-8333,ryan.channell@ncdenr.gov,FALSE,2023/09/11 00:00:00+00,https://edocs.deq.nc.gov/WasteManagement/Search.aspx?dbid=0&searchcommand={[WM]:[Program_ID]=%22*NONCD0000743*%22}
-80.0624814,36.1222223500001,3550,NCD980503189,Kernersville Rubble Dump,GREEN ST,KERNERSVILLE,Forsyth,36.12222235,-80.0624814,,12,Activity Pending,PRLF Unit Supervisor,919-707-8333,ryan.channell@ncdenr.gov,FALSE,2023/09/11 00:00:00+00,https://edocs.deq.nc.gov/WasteManagement/Search.aspx?dbid=0&searchcommand={[WM]:[Program_ID]=%22*NCD980503189*%22}
-78.3003340499999,36.09781538,3551,NONCD0000655,Louisburg site #2,East Johnson Street,LOUISBURG,Franklin,36.09781538,-78.30033405,,12,Activity Pending,PRLF Unit Supervisor,919-707-8333,ryan.channell@ncdenr.gov,FALSE,2023/09/11 00:00:00+00,https://edocs.deq.nc.gov/WasteManagement/Search.aspx?dbid=0&searchcommand={[WM]:[Program_ID]=%22*NONCD0000655*%22}
