OBJECTID1,HUC_8,HUC_10,HUC_12,ACRES,HU_10_NAME,HU_12_NAME,Basin,DWQ_Basin,Population,Shape__Area,Shape__Length,POP_2010,POP_2000,AREA,POP_CHG_10_20,POP_CHG_00_10,lat,long
1223,3010205,301020517,30102051704,9707.63,Sand Ridge-Bodie Island,Town of Kitty Hawk-Oceanside Seashore,PAS,Pasquotank,42,1718617.504,82899.35362,34,63,,8,-29,36.07033869,-75.73192833
880,3040206,304020607,30402060704,13189.17,Buck Creek-Waccamaw River,Bellamy Branch-Waccamaw River,LBR,Lumber,10,7408146.18,20189.90561,15,26,1.962927965,-5,-11,33.6959905,-78.9224708
913,3040206,304020606,30402060604,8145.24,Gore Creek-Waccamaw River,Bear Branch-Waccamaw River,LBR,Lumber,691,48167611.73,43549.9533,816,728,12.72692173,-125,88,33.6959905,-78.9224708
934,3040206,304020603,30402060306,27875.29,Headwaters Waccamaw River,Boggy Swamp-Waccamaw River,LBR,Lumber,494,165479031.8,91267.17047,603,548,43.55513189,-109,55,33.6959905,-78.9224708
879,3040208,304020803,30402080302,6399.6,Little River,Calabash Creek,LBR,Lumber,4820,37512767.83,36511.0462,3898,2401,9.952936151,922,1497,33.8911546,-78.5670571
929,3040208,304020802,30402080205,7321.44,Shallotte River,Holden Beach-Shallotte Inlet,LBR,Lumber,70,2013405.535,38510.61183,26,44,0.534168481,44,-18,33.9043392,-78.3811146
945,3040208,304020802,30402080202,12294.12,Shallotte River,Middle Shallotte River,LBR,Lumber,4052,72531895.77,48314.91581,3679,2485,19.20956866,373,1194,33.9057282,-78.3786145
959,3040208,304020802,30402080204,24525.43,Shallotte River,Lower Shallotte River,LBR,Lumber,12535,144499560.4,87296.55528,11116,8765,38.30242001,1419,2351,33.9057282,-78.3786145
976,3040208,304020802,30402080201,9136.42,Shallotte River,Upper Shallotte River,LBR,Lumber,2217,53868973.21,35909.98624,1784,826,14.27565925,433,958,33.9057282,-78.3786145
122,3030005,303000508,30300050803,25484.14,Walden Creek-Cape Fear River,Town of Southport-Cape Fear River,CPF,Cape Fear,4563,150138181,59811.92385,4043,3500,39.8168705,520,543,33.9182092,-78.0193011
941,3040208,304020801,30402080102,12056.14,Lockwoods Folly River,Headwaters Lockwoods Folly River,LBR,Lumber,585,71299856.73,48091.01699,718,632,18.83771952,-133,86,33.9214355,-78.2475396
914,3040208,304020802,30402080203,7879.28,Shallotte River,Shallotte Creek,LBR,Lumber,4000,46453457.73,33350.85338,3997,3296,12.31138038,3,701,33.9273947,-78.3605582
201,3030005,303000508,30300050802,16444.39,Walden Creek-Cape Fear River,Jump and Run Creek-Gully Creek,CPF,Cape Fear,14565,96943859.12,52953.16147,9395,5475,25.69435358,5170,3920,33.9493797,-78.0619826
928,3040206,304020607,30402060701,25907.35,Buck Creek-Waccamaw River,Cawcaw Swamp,LBR,Lumber,11961,145372861.6,73796.80883,8854,5024,38.52674899,3107,3830,33.9627472,-78.5660539
896,3040208,304020801,30402080106,16729.59,Lockwoods Folly River,Pamlico Creek-Lockwoods Folly River,LBR,Lumber,6796,98687908.88,54844.17124,5691,3820,26.13998237,1105,1871,33.9721885,-78.2746637
334,3040102,304010202,30401020204,21902.02,Hunting Creek,Upper Hunting Creek,YAD,Yadkin Pee Dee,1913,135861297.5,75937.97679,1927,1793,34.22190102,-14,134,33.993991,-84.0415758
402,3040102,304010202,30401020206,12863.83,Hunting Creek,Lower Hunting Creek,YAD,Yadkin Pee Dee,1321,79491906.01,51508.81114,1353,1283,20.09972852,-32,70,33.993991,-84.0415758
918,3040208,304020801,30402080104,11221.26,Lockwoods Folly River,Scotts Branch-Lockwoods Folly River,LBR,Lumber,2078,66268815.55,40852.06981,1100,769,17.53321128,978,331,33.995719,-78.2262531
198,3030005,303000507,30300050704,14978.35,Liliput Creek-Cape Fear River,Town of Kure Beach-Cape Fear River,CPF,Cape Fear,7992,88457799.59,49551.63969,6794,5128,23.40365388,1198,1666,33.9968399,-77.9072081
158,3030005,303000507,30300050703,13234.2,Liliput Creek-Cape Fear River,Orton Creek,CPF,Cape Fear,1115,78156620.08,57339.96554,1147,771,20.67844223,-32,376,34.0042597,-78.04094
953,3040208,304020801,30402080103,20178.5,Lockwoods Folly River,Royal Oak Swamp,LBR,Lumber,1039,119255820.8,52102.19586,1077,909,31.52891201,-38,168,34.0236929,-78.3024073
903,3040206,304020606,30402060603,19766.69,Gore Creek-Waccamaw River,Wet Ash Swamp,LBR,Lumber,1023,116772979.6,52181.76311,1159,1005,30.88545578,-136,154,34.0341476,-78.4986341
873,3040206,304020606,30402060605,8272.57,Gore Creek-Waccamaw River,Regan Branch-Waccamaw River,LBR,Lumber,325,48873186.95,34351.64055,342,281,12.92589233,-17,61,34.0350162,-78.5554378
1586,3020302,302030205,30203020501,6710.18,Masonboro Inlet-Mason Inlet,Everett Creek-Carolina Beach Inlet,WOK,White Oak,9467,39697671.04,35266.26146,7445,6119,,2022,1326,34.0351726,-77.8935966
134,3030005,303000507,30300050701,15906.06,Liliput Creek-Cape Fear River,Liliput Creek,CPF,Cape Fear,4779,94004944.65,64176.29113,4217,2274,24.85321372,562,1943,34.074775,-77.9724362
104,3030004,303000403,30300040303,12808.54,Headwaters Little River,Crystal Lake-Mill Creek,CPF,Cape Fear,9558,77829607.07,45811.68616,8066,7968,20.01334929,1492,98,34.0985047,-78.0863819
271,3040101,304010113,30401011301,20905.91,Muddy Creek,Mill Creek,YAD,Yadkin Pee Dee,50393,130082293.1,69194.10541,48044,44141,32.66548698,2349,3903,34.0985047,-78.0863819
799,3040201,304020103,30402010303,12244.11,Marks Creek-Pee Dee River,Mill Creek,YAD,Yadkin Pee Dee,831,73750061.47,48750.41983,1177,1202,19.13142155,-346,-25,34.0985047,-78.0863819
900,3040208,304020801,30402080105,8014.01,Lockwoods Folly River,Mill Creek,LBR,Lumber,918,47272242.14,34396.34918,664,409,12.52188374,254,255,34.0985047,-78.0863819
1030,3010201,301020112,30102011205,24132.93,Mill Creek-Nottoway River,Mill Creek,CHO,Chowan,9,3593754.707,15765.86659,12,11,0.893884821,-3,1,34.0985047,-78.0863819
1407,3020201,302020113,30202011303,19091.51,Mill Creek,Upper Mill Creek,NEU,Neuse,2673,116226256,53333.87858,2567,2208,,106,359,34.0985047,-78.0863819
1433,3020204,302020403,30202040301,23049.86,Lower Trent River,Mill Creek,NEU,Neuse,297,139215738.2,55262.14647,373,435,,-76,-62,34.0985047,-78.0863819
1444,3020201,302020113,30202011305,19780.3,Mill Creek,Middle Mill Creek,NEU,Neuse,1672,120476297.6,59292.0266,1570,1365,,102,205,34.0985047,-78.0863819
911,3040206,304020605,30402060503,11407.98,Seven Creeks,Toms Fork,LBR,Lumber,1112,52284543.12,30725.7893,1442,1446,13.8039203,-330,-4,34.1037468,-78.7858667
943,3040206,304020604,30402060404,9304.46,Juniper Creek-Waccamaw River,Alligator Swamp,LBR,Lumber,225,55065093.96,33625.62733,267,233,14.5382067,-42,34,34.1113509,-78.4695097
978,3040206,304020606,30402060601,14504.84,Gore Creek-Waccamaw River,Horse Pen Swamp-Waccamaw River,LBR,Lumber,503,85905247.2,64935.98473,596,592,22.66376099,-93,4,34.1140142,-78.5178071
906,3040206,304020605,30402060502,28709.24,Seven Creeks,Headwaters Monie Swamp,LBR,Lumber,3318,170376240.3,86244.81509,3672,3257,44.85819015,-354,415,34.1296209,-78.6994316
947,3040206,304020605,30402060505,30724.44,Seven Creeks,Monie Swamp-Grissett Swamp,LBR,Lumber,4140,179691034.4,94534.20707,4312,4026,47.40503523,-172,286,34.1296209,-78.6994316
932,3040206,304020604,30402060401,9459.14,Juniper Creek-Waccamaw River,Bear Pen Islands Swamp,LBR,Lumber,12,56024069.84,42962.72455,4,3,14.78001001,8,1,34.1332256,-78.342225
192,3030005,303000506,30300050602,28527.07,Town Creek,Bell Swamp-Rice Creek,CPF,Cape Fear,2284,168803569.6,72385.53663,2466,2144,44.57354879,-182,322,34.1332265,-78.0961046
1682,3010103,301010304,30101030402,16547.19,Mayo River,Russell Creek,ROA,Roanoke,79,6279623.117,14924.34928,75,72,,4,3,34.1373929,-78.1163832
52,3030004,303000405,30300040506,16671.38,Buies Creek-Cape Fear River,Juniper Creek-Cape Fear River,CPF,Cape Fear,7072,101601375.2,59354.87101,7007,6816,26.04903007,65,191,34.1507735,-78.4606859
47,3030005,303000506,30300050603,17585.3,Town Creek,Lower Town Creek,CPF,Cape Fear,3005,104165585.6,61702.51299,2150,1063,27.47702511,855,1087,34.1651705,-78.0930491
119,3030005,303000506,30300050601,34295.07,Town Creek,Upper Town Creek,CPF,Cape Fear,1824,203270228.6,61667.15084,1814,1670,53.58605671,10,144,34.1651705,-78.0930491
1234,3020103,302010301,30201030102,14576.58,Town Creek,Upper Town Creek,TAR,Tar-Pamlico,2404,89926307.38,46455.71255,2516,2186,,-112,330,34.1651705,-78.0930491
1257,3020103,302010301,30201030107,11354.76,Town Creek,Lower Town Creek,TAR,Tar-Pamlico,2095,70005936.93,50767.37844,2460,2297,,-365,163,34.1651705,-78.0930491
1703,3010103,301010309,30101030901,22530.7,Cascade Creek-Dan River,Town Creek-Dan River,ROA,Roanoke,6251,141271521.7,58220.53149,6299,6042,,-48,257,34.1651705,-78.0930491
341,3040104,304010405,30401040502,14296.45,Pee Dee River-Blewett Falls Lake,Dry Creek-Pee Dee River,YAD,Yadkin Pee Dee,125,86650538.23,56658.18306,84,122,22.33820438,41,-38,34.1715296,-79.536862
845,3040201,304020103,30402010306,10209.14,Marks Creek-Pee Dee River,Whortleberry Creek-Pee Dee River,YAD,Yadkin Pee Dee,85,27477167.98,24251.22365,94,91,7.132857012,-9,3,34.1715296,-79.536862
866,3040201,304020103,30402010304,29795.58,Marks Creek-Pee Dee River,Island Creek-Pee Dee River,YAD,Yadkin Pee Dee,727,179754900.9,105241.6676,887,940,46.55559861,-160,-53,34.1715296,-79.536862
889,3040204,304020405,30402040501,11042.57,Middle Little Pee Dee River,Carolina Branch-Little Pee Dee River,LBR,Lumber,9,3216117.441,11852.67729,9,7,0.839653652,0,2,34.1715296,-79.536862
1580,3020302,302030205,30203020502,32814.41,Masonboro Inlet-Mason Inlet,Masonboro Inlet-Mason Inlet,WOK,White Oak,74791,194680070.5,81680.13992,67163,53551,,7628,13612,34.1825403,-77.7995573
212,3030005,303000505,30300050503,18254.54,Brunswick River-Cape Fear River,Brunswick River-Cape Fear River,CPF,Cape Fear,27983,108302590.6,66570.93926,24696,19314,28.52271049,3287,5382,34.2178671,-77.9767183
1614,3020302,302030205,30203020503,26185.37,Masonboro Inlet-Mason Inlet,Wrightsville Beach-Mason Inlet,WOK,White Oak,811,6857570.66,129531.379,718,848,,93,-130,34.2424126,-77.7697076
64,3030004,303000406,30300040601,8369.69,Rockfish Creek,Juniper Creek,CPF,Cape Fear,2,50706147.17,38552.95957,1,0,13.07764117,1,1,34.243588,-78.0448148
767,3040204,304020403,30402040302,23608.72,Shoe Heel Creek,Juniper Creek,LBR,Lumber,1355,142326554.8,81535.94982,1744,1724,36.88863031,-389,20,34.243588,-78.0448148
872,3040206,304020604,30402060403,33617.53,Juniper Creek-Waccamaw River,Upper Juniper Creek,LBR,Lumber,95,198872628.3,92797.12989,156,80,52.52729109,-61,76,34.243588,-78.0448148
949,3040206,304020604,30402060405,29280,Juniper Creek-Waccamaw River,Lower Juniper Creek,LBR,Lumber,190,173562467.5,67552.21101,222,235,45.75005802,-32,-13,34.243588,-78.0448148
1127,3010205,301020504,30102050401,12415.95,Yeopim River-Albemarle Sound,Burnt Mill Creek,PAS,Pasquotank,459,77152439.11,47206.83269,447,393,,12,54,34.2493817,-77.9291538
770,3040203,304020314,30402031401,27676.21,Outlet Lumber River,Headwaters Gapway Swamp,LBR,Lumber,781,139916097.9,58821.59224,1000,938,36.81476398,-219,62,34.2587865,-78.1749683
313,3030007,303000708,30300070808,21136.41,Harrisons Creek-Northeast Cape Fear River,Smith Creek,CPF,Cape Fear,60245,125552514.3,58216.0163,56704,45308,33.02564442,3541,11396,34.2629473,-77.8635959
724,3010106,301010602,30101060204,20144.09,Upper Lake Gaston-Roanoke River,Newmans Creek-Smith Creek,ROA,Roanoke,1239,125365027.6,51365.14408,1323,1296,31.23345545,-84,27,34.2629473,-77.8635959
1408,3020201,302020107,30202010702,15025.56,Milburnie Lake-Neuse River,Smith Creek,NEU,Neuse,37835,92997003.87,49194.96979,21934,9648,,15901,12286,34.2629473,-77.8635959
293,3030007,303000706,30300070611,34873.9,Angola Swamp-Northeast Cape Fear River,Lewis Creek-Northeast Cape Fear River,CPF,Cape Fear,1882,208945443.7,92474.31277,2361,1916,54.49051903,-479,445,34.2746985,-77.8633294
162,3030005,303000503,30300050302,17637.78,Livingston Creek,Middle Livingston Creek,CPF,Cape Fear,860,104884412.7,51682.43151,968,810,27.5590481,-108,158,34.280506,-78.2419061
203,3030005,303000503,30300050301,28745.68,Livingston Creek,Upper Livingston Creek,CPF,Cape Fear,742,170664029.4,57928.09538,743,588,44.91510488,-1,155,34.280506,-78.2419061
220,3030005,303000503,30300050303,18229.47,Livingston Creek,Lower Livingston Creek,CPF,Cape Fear,1952,108398643.6,51824.11235,2257,2146,28.48356497,-305,111,34.280506,-78.2419061
1,3030003,303000302,30300030201,27827.9,Upper Deep River,Upper Sandy Creek,CPF,Cape Fear,4440,171796751.8,62196.5701,4409,4610,43.48109417,31,-201,34.2850596,-78.156745
70,3030003,303000302,30300030202,10613.09,Upper Deep River,Lower Sandy Creek,CPF,Cape Fear,1852,65406459.63,47718.8437,1793,1594,16.58294613,59,199,34.2850596,-78.156745
159,3030006,303000602,30300060201,9267.63,Lower South River,Sandy Creek,CPF,Cape Fear,2548,56031000.84,44424.49423,2128,1778,14.48066956,420,350,34.2850596,-78.156745
1202,3020101,302010107,30201010701,21475.02,Sandy Creek,Headwaters Sandy Creek,TAR,Tar-Pamlico,12567,134098088.8,52132.29014,13718,14091,,-1151,-373,34.2850596,-78.156745
1233,3020101,302010107,30201010703,13921.68,Sandy Creek,Upper Sandy Creek,TAR,Tar-Pamlico,1418,86812960.7,51235.15588,1438,1301,,-20,137,34.2850596,-78.156745
1237,3020101,302010107,30201010705,33446.61,Sandy Creek,Middle Sandy Creek,TAR,Tar-Pamlico,2251,208074849.9,85788.34957,2550,2396,,-299,154,34.2850596,-78.156745
1246,3020101,302010107,30201010706,12416.31,Sandy Creek,Lower Sandy Creek,TAR,Tar-Pamlico,502,77154401.41,52907.31351,564,615,,-62,-51,34.2850596,-78.156745
1639,3020302,302030204,30203020401,10497.85,Topsail Beach,Futch Creek-Rich Inlet,WOK,White Oak,6721,62420383.15,35683.16227,6009,3534,,712,2475,34.2952295,-77.7094375
940,3040206,304020602,30402060201,12564.32,White Marsh,Upper Soules Swamp,LBR,Lumber,2518,74705958.82,42135.26813,2894,2797,19.63174227,-376,97,34.3057246,-78.6866825
952,3040206,304020602,30402060202,18671.32,White Marsh,Lower Soules Swamp,LBR,Lumber,7096,111036397.9,57168.31672,8202,8138,29.17393474,-1106,64,34.3057246,-78.6866825
919,3040206,304020603,30402060304,10125.44,Headwaters Waccamaw River,Lake Waccamaw,LBR,Lumber,895,60174551.39,31356.75051,947,891,15.82100048,-52,56,34.3190578,-78.5000088
855,3040202,304020201,30402020102,32657.2,Headwaters Lynches River,Headwaters Lynches River,YAD,Yadkin Pee Dee,1876,100665531.1,52707.97743,1777,1697,26.11816221,99,80,34.3313506,-79.9898651
149,3030006,303000601,30300060101,23629.86,Upper South River,Upper Black River,CPF,Cape Fear,10829,144404213.5,77456.47672,10593,8757,36.92165325,236,1836,34.331868,-78.0325363
151,3030006,303000601,30300060102,13295.32,Upper South River,Lower Black River,CPF,Cape Fear,5881,80935309.67,57833.59805,6320,6056,20.77393892,-439,264,34.331868,-78.0325363
186,3030006,303000608,30300060805,26201.34,Black River,Rowan Creek-Black River,CPF,Cape Fear,429,156524576.5,98743.29091,582,415,40.93959367,-153,167,34.331868,-78.0325363
218,3030006,303000608,30300060801,15390.2,Black River,Clear Run-Black River,CPF,Cape Fear,370,92532554.32,61522.87584,504,583,24.04719274,-134,-79,34.331868,-78.0325363
965,3040206,304020603,30402060305,24937.73,Headwaters Waccamaw River,Bogue Swamp,LBR,Lumber,1653,148366785.6,61639.57042,1849,1868,38.96520019,-196,-19,34.3338256,-78.5717591
974,3040206,304020602,30402060203,29100.39,White Marsh,Town of Whiteville-White Marsh,LBR,Lumber,4318,173249614.4,80035.34843,4876,4507,45.46936846,-558,369,34.3387802,-78.7030721
1552,3020302,302030204,30203020404,6256.65,Topsail Beach,New Topsail Inlet-Topsail Beach,WOK,White Oak,141,3180544.66,62712.0754,107,132,,34,-25,34.3476687,-77.6558084
836,3040203,304020311,30402031101,19748.88,Porter Swamp-Lumber River,Dunn Swamp,LBR,Lumber,1917,117537698.6,56206.80593,2282,2553,30.85762186,-365,-271,34.3575355,-78.887087
853,3040203,304020311,30402031103,25426.67,Porter Swamp-Lumber River,Lower Porter Swamp,LBR,Lumber,1216,151400267.2,74729.0995,1512,1592,39.72917284,-296,-80,34.3598893,-78.9650287
858,3040203,304020311,30402031102,16101.11,Porter Swamp-Lumber River,Upper Porter Swamp,LBR,Lumber,1269,95690278.41,61021.26689,1590,1681,25.15797886,-321,-91,34.3598893,-78.9650287
967,3040206,304020603,30402060302,10937.83,Headwaters Waccamaw River,Slap Swamp,LBR,Lumber,469,65157783.8,43646.56502,637,697,17.0903547,-168,-60,34.3598916,-78.5000085
844,3040203,304020312,30402031207,8789.28,Headwaters Ashpole Swamp,Coward Swamp-Ashpole Swamp,LBR,Lumber,146,52335556.06,49444.02142,202,228,13.73324317,-56,-26,34.3637769,-79.0464217
328,3030007,303000708,30300070807,20474.39,Harrisons Creek-Northeast Cape Fear River,Prince George Creek-Northeast Cape Fear River,CPF,Cape Fear,8256,121856832.3,57269.50836,7994,6464,31.99123116,262,1530,34.3640882,-77.9495142
905,3040206,304020603,30402060301,27921.78,Headwaters Waccamaw River,Sasspan Branch-Boggy Branch,LBR,Lumber,1405,166343313.9,68142.89691,1649,1867,43.62778317,-244,-218,34.3680033,-78.4496167
116,3030005,303000504,30300050404,16515.95,Hood Creek-Cape Fear River,Weyman Creek,CPF,Cape Fear,1718,98354715.29,44326.79213,1871,1752,25.80617172,-153,119,34.3722902,-78.2846238
211,3030006,303000608,30300060807,13578.11,Black River,Cross Way Creek-Black River,CPF,Cape Fear,222,80884325.72,47131.58375,243,278,21.21579911,-21,-35,34.3754273,-78.0689373
998,3010107,301010709,30101070901,18097.95,Plymouth-Roanoke River,Welch Creek,ROA,Roanoke,2021,111539755,62941.10533,2488,2452,28.27809907,-467,36,34.3818125,-78.6497974
216,3030006,303000608,30300060806,27705.26,Black River,Lyon Creek,CPF,Cape Fear,734,165184110,82816.66517,930,749,43.28944939,-196,181,34.3922319,-78.1500261
327,3030007,303000708,30300070804,23433.22,Harrisons Creek-Northeast Cape Fear River,Harrisons Creek,CPF,Cape Fear,3679,139693159.6,83990.01423,2562,1361,36.6144093,1117,1201,34.3930904,-77.7609394
1605,3020302,302030204,30203020402,8130.24,Topsail Beach,Virginia Creek,WOK,White Oak,6331,48479797.58,36883.33003,4343,2715,,1988,1628,34.4140569,-77.5919161
805,3040203,304020312,30402031206,18168.37,Headwaters Ashpole Swamp,Indian Swamp,LBR,Lumber,1318,108350187.3,54655.18267,1580,1536,28.38808239,-262,44,34.4157277,-79.0532034
262,3030007,303000708,30300070803,12809.06,Harrisons Creek-Northeast Cape Fear River,Trumpeter Swamp,CPF,Cape Fear,540,76375087.49,49844.56549,476,190,20.01414199,64,286,34.4276706,-77.7387628
828,3040203,304020311,30402031104,24452.29,Porter Swamp-Lumber River,Flowers Swamp-Lumber River,LBR,Lumber,958,145718223.1,90572.19929,1119,1278,38.20670041,-161,-159,34.4346103,-79.0078089
909,3040206,304020601,30402060104,24880.75,Red Hill Swamp,Western Prong Red Hill Swamp,LBR,Lumber,1928,148341650.4,70224.50801,2023,1962,38.87617699,-95,61,34.4376696,-78.6819602
912,3040206,304020601,30402060105,25919.97,Red Hill Swamp,Slades Swamp-Red Hill Swamp,LBR,Lumber,2052,154613067.3,64606.7651,2431,2509,40.49994834,-379,-78,34.4376696,-78.6819602
237,3030007,303000707,30300070704,18495.73,Long Creek,Middle Long Creek,CPF,Cape Fear,1319,110429051.9,55733.43688,1448,1334,28.89958022,-129,114,34.4421115,-78.0097139
246,3030007,303000707,30300070705,13708.85,Long Creek,Lower Long Creek,CPF,Cape Fear,1313,81696027.89,47566.1162,1233,1012,21.42007519,80,221,34.4421115,-78.0097139
360,3040105,304010504,30401050406,19487.89,Long Creek,Lower Long Creek,YAD,Yadkin Pee Dee,3257,118595627.7,64473.66536,3260,3159,30.44983428,-3,101,34.4421115,-78.0097139
445,3050101,305010114,30501011403,23188.42,Mountain Island Lake-Catawba River,Long Creek,CAT,Catawba,55812,141259802.2,69610.4567,43222,22894,36.23190499,12590,20328,34.4421115,-78.0097139
500,3050102,305010206,30501020603,18906.17,Lower South Fork Catawba River,Lower Long Creek,CAT,Catawba,27782,115136419.4,54431.83592,24659,24092,29.5408976,3123,567,34.4421115,-78.0097139
227,3030007,303000707,30300070703,21117.75,Long Creek,Rileys Creek,CPF,Cape Fear,1643,126036072.1,59914.67553,1782,1784,32.99648462,-139,-2,34.4505712,-77.9938466
1600,3020302,302030204,30203020403,21531.34,Topsail Beach,Beckys Creek-New Topsail Inlet,WOK,White Oak,15863,128252237.1,75704.34984,10663,6880,,5200,3783,34.4516963,-77.5763151
188,3030005,303000504,30300050402,27225.2,Hood Creek-Cape Fear River,Frenchs Creek-Cape Fear River,CPF,Cape Fear,300,162709353.8,80493.85346,423,380,42.5393835,-123,43,34.4550445,-78.3159411
491,3050101,305010101,30501010102,23954.81,Headwaters Catawba River,Headwaters Catawba River,CAT,Catawba,1885,147083746.5,63674.48558,1931,1956,37.42939357,-46,-25,34.4668123,-80.8889704
536,3050101,305010114,30501011406,10511.12,Mountain Island Lake-Catawba River,Lake Wylie-Catawba River,CAT,Catawba,17983,63797211.21,42105.19842,10118,2827,16.42362432,7865,7291,34.4668123,-80.8889704
550,3050101,305010112,30501011204,16902.84,Lower Lake Norman,Catawba River-Lake Norman,CAT,Catawba,15863,103369521,51210.09233,12761,9959,26.41067494,3102,2802,34.4668123,-80.8889704
1604,3020302,302030203,30203020301,31640.4,New River Inlet,Ashe Island-Stump Sound,WOK,White Oak,14413,188968254.2,71422.55588,6556,4818,,7857,1738,34.4782224,-77.4663541
930,3040206,304020601,30402060103,26271.94,Red Hill Swamp,Elkton Swamp,LBR,Lumber,781,156855030.8,65713.12094,936,963,41.04991124,-155,-27,34.487222,-78.5987238
792,3040203,304020312,30402031204,27134.59,Headwaters Ashpole Swamp,Hog Swamp,LBR,Lumber,2892,162133267.5,93849.69529,3652,4120,42.3977872,-760,-468,34.4907204,-79.0719782
207,3030006,303000608,30300060804,13426.89,Black River,Colvins Creek,CPF,Cape Fear,578,80257361.16,50793.87876,576,533,20.97951107,2,43,34.5182704,-78.179241
779,3040203,304020312,30402031203,14347.53,Headwaters Ashpole Swamp,Town of Fairmont-Old Field Swamp,LBR,Lumber,3493,85753857.81,57176.34413,4278,4451,22.41800958,-785,-173,34.5209975,-79.1194799
776,3040203,304020312,30402031202,29436.46,Headwaters Ashpole Swamp,Headwaters Ashpole Swamp,LBR,Lumber,2467,175974735.5,76055.3891,2919,2715,45.98631186,-452,204,34.5259966,-79.2328172
857,3040203,304020313,30402031303,8669.49,Ashpole Swamp,Ashpole Swamp,LBR,Lumber,83,15479712.46,21230.00638,89,80,4.064147541,-6,9,34.5259966,-79.2328172
1596,3020302,302030203,30203020302,19787.37,New River Inlet,Holover Creek-New River Inlet,WOK,White Oak,6212,118362042.5,53309.08138,5400,3850,,812,1550,34.5290127,-77.3360319
962,3040204,304020406,30402040601,38253.71,Lake Swamp-Little Pee Dee River,Mitchell Swamp,LBR,Lumber,2154,31684752.79,35839.86086,2439,976,8.352366813,-285,1463,34.5397325,-79.3155715
1225,3020103,302010303,30201030304,11180.33,Conetoe Creek,Mitchell Swamp,TAR,Tar-Pamlico,857,68969404.4,51318.76145,1011,1033,,-154,-22,34.5397325,-79.3155715
864,3040203,304020310,30402031004,11456.51,Saddletree Swamp-Lumber River,Tenmile Branch-Mill Swamp,LBR,Lumber,2245,68464949.09,42987.61125,2543,2265,17.90079775,-298,278,34.5407456,-78.9825492
821,3040203,304020309,30402030901,15135.41,Lower Big Swamp,Bryant Swamp,LBR,Lumber,2962,90493866.16,54086.17697,3376,3267,23.6490724,-414,109,34.5468438,-78.787437
765,3040201,304020105,30402010502,19762.75,Reedys Branch-Pee Dee River,Whites Creek,YAD,Yadkin Pee Dee,116,21342740.45,26161.4678,135,105,5.54138445,-19,30,34.5517383,-78.6653942
925,3040206,304020601,30402060101,11340.24,Red Hill Swamp,Whites Creek,LBR,Lumber,617,67817888.38,45616.37065,885,806,17.71913236,-268,79,34.5517383,-78.6653942
229,3030007,303000708,30300070801,19660.71,Harrisons Creek-Northeast Cape Fear River,Burgaw Creek,CPF,Cape Fear,4766,117613591.5,55075.05873,5015,4698,30.71986065,-249,317,34.5587086,-77.8938745
803,3040203,304020314,30402031404,21401.09,Outlet Lumber River,Lumber River,LBR,Lumber,448,28439899.37,23397.59237,679,828,7.472746119,-231,-149,34.5669774,-79.1432093
865,3040203,304020310,30402031005,13009.71,Saddletree Swamp-Lumber River,River Swamp-Lumber River,LBR,Lumber,955,77701490.68,69475.90146,1115,967,20.32767389,-160,148,34.5669774,-79.1432093
299,3030007,303000706,30300070610,21209.59,Angola Swamp-Northeast Cape Fear River,Ashes Creek,CPF,Cape Fear,11,126768482.4,67378.86846,6,18,33.13998676,5,-12,34.5692491,-77.7652239
1547,3020302,302030202,30203020210,12328.84,New River,Everett Creek-New River,WOK,White Oak,2366,73817184.59,41512.5902,769,304,,1597,465,34.5728038,-77.4511791
143,3030005,303000504,30300050401,22686.04,Hood Creek-Cape Fear River,Hammond Creek,CPF,Cape Fear,1108,135683641.9,73531.66935,1365,1361,35.44693269,-257,4,34.5770057,-78.5660622
1595,3020302,302030202,30203020207,12602.34,New River,Camp Lejeune-New River,WOK,White Oak,8114,75590101.31,44944.19173,8557,6617,,-443,1940,34.583589,-77.3603934
209,3030007,303000704,30300070402,23361.82,Cypress Creek-Northeast Cape Fear River,Back Swamp,CPF,Cape Fear,3164,140642376.8,61503.12593,2309,1487,36.5028478,855,822,34.5847186,-79.1209829
849,3040203,304020304,30402030401,22031.77,Bear Swamp-Lumber River,Back Swamp,LBR,Lumber,4637,132036956.2,71521.60079,5447,4805,34.42463346,-810,642,34.5847186,-79.1209829
1358,3020104,302010401,30201040109,25394.19,Chocowinity Bay-Pamlico River,Duck Creek-Pamlico River,TAR,Tar-Pamlico,947,155172977.6,66629.47993,989,874,,-42,115,34.5957195,-77.2821782
816,3040203,304020310,30402031003,17138.35,Saddletree Swamp-Lumber River,Jacob Swamp-Lumber River,LBR,Lumber,11923,102645558.4,76374.89156,15317,14838,26.77868163,-3394,479,34.5961898,-78.9401341
870,3040203,304020310,30402031002,9436.58,Saddletree Swamp-Lumber River,Jacob Swamp,LBR,Lumber,2966,56480361.05,43525.58176,3667,3542,14.74464615,-701,125,34.5961898,-78.9401341
126,3030007,303000706,30300070608,11230.15,Angola Swamp-Northeast Cape Fear River,Lower Shaken Creek,CPF,Cape Fear,15,67213908.94,39332.21848,6,13,17.547137,9,-7,34.5993793,-77.7339362
223,3030007,303000706,30300070607,22963.54,Angola Swamp-Northeast Cape Fear River,Middle Shaken Creek,CPF,Cape Fear,213,137209717.8,56156.92626,106,147,35.88059076,107,-41,34.5993793,-77.7339362
244,3030007,303000706,30300070606,20016.45,Angola Swamp-Northeast Cape Fear River,Upper Shaken Creek,CPF,Cape Fear,159,119681376.6,54362.61286,71,87,31.27569615,88,-16,34.5993793,-77.7339362
170,3030007,303000706,30300070603,31806.32,Angola Swamp-Northeast Cape Fear River,Shelter Swamp Creek,CPF,Cape Fear,149,190510616.3,79059.96378,165,305,49.69737929,-16,-140,34.6046407,-77.6460953
781,3040203,304020308,30402030801,27127.11,Middle Big Swamp,Crawley Swamp,LBR,Lumber,3086,162454544.3,64416.20599,3496,2752,42.38611065,-410,744,34.6060285,-78.767422
1597,3020302,302030202,30203020208,20917.03,New River,Frenchs Creek-New River,WOK,White Oak,5023,125319864.5,52114.6588,4258,7398,,765,-3140,34.6195382,-77.3049794
185,3030006,303000608,30300060803,22499.46,Black River,Kings Branch-Black River,CPF,Cape Fear,570,134860260.3,69679.22438,654,801,35.15541171,-84,-147,34.6365557,-78.230168
94,3030005,303000502,30300050206,19631.24,Turnbull Creek-Cape Fear River,White Lake-Cape Fear River,CPF,Cape Fear,1836,117662679.9,107063.1376,2163,1747,30.67381813,-327,416,34.6404489,-78.4838952
166,3030007,303000706,30300070609,16451.07,Angola Swamp-Northeast Cape Fear River,Lower Holly Shelter Creek,CPF,Cape Fear,183,98550547.44,54224.20493,299,198,25.70474268,-116,101,34.6479003,-77.7001341
210,3030007,303000706,30300070604,17651.7,Angola Swamp-Northeast Cape Fear River,Upper Holly Shelter Creek,CPF,Cape Fear,1211,105880392.2,58665.16404,1209,1255,27.58080137,2,-46,34.6479003,-77.7001341
784,3040203,304020305,30402030501,22624.43,Raft Swamp,Upper Raft Swamp,LBR,Lumber,4590,136591588.5,54311.32202,4308,3510,35.35066807,282,798,34.6483012,-79.098396
807,3040203,304020305,30402030504,24711.85,Raft Swamp,Middle Raft Swamp,LBR,Lumber,5488,148684498,91591.557,5988,5162,38.61225834,-500,826,34.6483012,-79.098396
837,3040203,304020305,30402030505,10343,Raft Swamp,Lower Raft Swamp,LBR,Lumber,4729,62031167.1,39758.33696,5525,4907,16.16093483,-796,618,34.6483012,-79.098396
840,3040204,304020403,30402040303,14010.77,Shoe Heel Creek,Headwaters Shoe Heel Creek,LBR,Lumber,1532,84447328.15,62433.48378,2038,1584,21.89183031,-506,454,34.6504772,-79.3690824
867,3040203,304020308,30402030802,27591.17,Middle Big Swamp,Jackson Swamp-Big Swamp,LBR,Lumber,3683,165274289.2,86303.2819,4164,3756,43.11120609,-481,408,34.6558325,-78.9334204
150,3030007,303000706,30300070602,17044.74,Angola Swamp-Northeast Cape Fear River,Headwaters Sandy Run Swamp,CPF,Cape Fear,1114,102202350.2,50916.75274,865,645,26.63239921,249,220,34.6620214,-77.6421431
789,3040203,304020310,30402031001,22649.12,Saddletree Swamp-Lumber River,Saddletree Swamp,LBR,Lumber,13671,135879715.9,64883.51367,14156,12873,35.38924253,-485,1283,34.6807193,-79.0244763
1530,3020301,302030107,30203010703,10369.45,Bogue Banks-Shackleford Banks,Lighthouse Channel-Back Sound,WOK,White Oak,358,62181986.46,36363.7743,427,557,,-69,-130,34.6839431,-76.5632726
1633,3020301,302030107,30203010701,18877.6,Bogue Banks-Shackleford Banks,Town of Salter Path-Jumping Run,WOK,White Oak,5506,113347233.7,51576.59195,5889,5471,,-383,418,34.6884952,-76.886051
1582,3020301,302030107,30203010704,10981.65,Bogue Banks-Shackleford Banks,Carrot Island-Beaufort Inlet,WOK,White Oak,2631,65178327.86,47586.30212,2765,3424,,-134,-659,34.6937732,-76.6663185
1565,3020301,302030107,30203010705,17982.91,Bogue Banks-Shackleford Banks,Bogue Banks-Shackleford Banks,WOK,White Oak,214,15225256.29,114202.2165,261,533,,-47,-272,34.6946061,-76.8146587
1588,3020301,302030103,30203010303,12878.1,Bogue Banks-Bogue Sound,Bogue Banks-Bogue Sound,WOK,White Oak,4131,77278537.99,45322.09521,3352,2613,,779,739,34.6946061,-76.8146587
1615,3020301,302030103,30203010304,14797.99,Bogue Banks-Bogue Sound,Bogue Sound-Bogue Inlet,WOK,White Oak,5694,88736099.07,64327.1898,5129,4541,,565,588,34.6946061,-76.8146587
1625,3020301,302030103,30203010305,9679.33,Bogue Banks-Bogue Sound,Bogue Banks-Bear Island,WOK,White Oak,557,10070146.66,90396.64801,503,553,,54,-50,34.6946061,-76.8146587
1638,3020302,302030202,30203020206,13319.98,New River,Wallace Creek,WOK,White Oak,5469,79930215.93,44628.51546,4081,5219,,1388,-1138,34.6989987,-77.2981542
1562,3020301,302030106,30203010602,10082.67,Oyster Creek-Jarrett Bay,Great Island-Horse Island,WOK,White Oak,103,60653433.34,35929.64838,212,202,,-109,10,34.7043288,-76.6435398
176,3030007,303000706,30300070601,31400.39,Angola Swamp-Northeast Cape Fear River,Angola Swamp,CPF,Cape Fear,248,188473308.5,60004.94228,263,222,49.06313285,-15,41,34.7058938,-77.8710285
1337,3020105,302010504,30201050401,37078.93,Cape Lookout Shoals-Core Banks,Core Banks-Drum Inlet,TAR,Tar-Pamlico,163,223846795.6,80636.73972,243,344,,-80,-101,34.706389,-76.458889
847,3040203,304020307,30402030705,13923.84,Upper Big Swamp,Lewis Mill Branch-Big Swamp,LBR,Lumber,1168,83582097.54,59031.4331,1172,1000,21.75600513,-4,172,34.7090177,-78.8545424
1559,3020301,302030103,30203010301,21022.21,Bogue Banks-Bogue Sound,Queen Creek,WOK,White Oak,16539,126173826.2,56732.36095,14614,10928,,1925,3686,34.7120441,-77.1945158
795,3040203,304020307,30402030701,15645.37,Upper Big Swamp,Upper Tenmile Swamp,LBR,Lumber,1799,94005026.01,53574.71254,1978,1662,24.44589584,-179,316,34.7154601,-78.9316228
809,3040203,304020307,30402030702,24204.8,Upper Big Swamp,Lower Tenmile Swamp,LBR,Lumber,2232,145310822.4,66507.71542,2426,2249,37.81998955,-194,177,34.7154601,-78.9316228
1024,3010107,301010706,30101070603,16469.4,Gardener Creek-Roanoke River,Broad Creek-Roanoke River,ROA,Roanoke,518,101676904.8,59194.34517,603,581,25.73343721,-85,22,34.720556,-76.936667
1034,3010107,301010708,30101070807,8234.6,Outlet Cashie River,Broad Creek-Cashie River,ROA,Roanoke,73,50908164.89,34223.51504,71,59,12.86655926,2,12,34.720556,-76.936667
1275,3010205,301020515,30102051502,17043.46,Croatan Sound,Broad Creek-Roanoke Sound,PAS,Pasquotank,877,105200673.6,47348.90258,836,961,,41,-125,34.720556,-76.936667
1352,3020104,302010401,30201040105,14640.77,Chocowinity Bay-Pamlico River,Broad Creek,TAR,Tar-Pamlico,4459,89664395.72,56744.70817,4708,4434,,-249,274,34.720556,-76.936667
1372,3020104,302010403,30201040304,25968.77,Pantego Creek,Deep Run-Broad Creek,TAR,Tar-Pamlico,787,159241264.6,60146.0618,820,819,,-33,1,34.720556,-76.936667
1424,3020204,302020407,30202040703,22067.04,Neuse River,Broad Creek,NEU,Neuse,817,133692739.4,75448.89637,780,682,,37,98,34.720556,-76.936667
972,3040204,304020403,30402040305,30520.59,Shoe Heel Creek,Maxton Pond-Shoe Heel Creek,LBR,Lumber,3062,169787759.8,96046.681,3743,4119,44.22752574,-681,-376,34.7207034,-79.3669714
1577,3020301,302030107,30203010702,7567.08,Bogue Banks-Shackleford Banks,Morehead City-Drum Shoals,WOK,White Oak,5528,45429689.71,31330.17975,5140,4978,,388,162,34.7229391,-76.7260436
133,3030006,303000608,30300060802,17058.71,Black River,Canty Mill Creek-Black River,CPF,Cape Fear,541,102437764.5,52618.16624,632,637,26.65423595,-91,-5,34.7238244,-78.2440526
40,3030005,303000504,30300050407,10536.89,Hood Creek-Cape Fear River,Grist Mill Branch-Cape Fear River,CPF,Cape Fear,641,62720767.16,49548.57727,617,303,16.46389013,24,314,34.7256634,-78.4904278
42,3030005,303000501,30300050104,28162.21,Harrison Creek-Cape Fear River,Phillips Creek-Cape Fear River,CPF,Cape Fear,1227,169353143.3,92420.0709,1478,1283,44.00345889,-251,195,34.7256634,-78.4904278
58,3030004,303000401,30300040104,18694.92,Buckhorn Creek-Cape Fear River,Gulf Creek-Cape Fear River,CPF,Cape Fear,1303,114586193.2,72616.36307,1241,1112,29.21081468,62,129,34.7256634,-78.4904278
73,3030005,303000505,30300050501,18164.04,Brunswick River-Cape Fear River,Indian Creek-Cape Fear River,CPF,Cape Fear,1898,107982385.9,48366.44578,2011,1889,28.38132036,-113,122,34.7256634,-78.4904278
89,3030004,303000405,30300040505,11938.72,Buies Creek-Cape Fear River,Dry Creek-Cape Fear River,CPF,Cape Fear,4036,72869747.48,70390.55551,3583,3604,18.6542484,453,-21,34.7256634,-78.4904278
120,3030005,303000508,30300050804,19500.72,Cape Fear River,Frying Pan Shoals-Cape Fear River,CPF,Cape Fear,100,6340554.674,34903.8477,49,106,1.683569568,51,-57,34.7256634,-78.4904278
217,3030005,303000504,30300050405,20186.98,Hood Creek-Cape Fear River,Mitchell Landing-Cape Fear River,CPF,Cape Fear,391,120304424.6,88782.12198,433,467,31.54216674,-42,-34,34.7256634,-78.4904278
83,3030005,303000502,30300050201,35250.11,Turnbull Creek-Cape Fear River,Ellis Creek,CPF,Cape Fear,713,211887679.4,96644.85692,874,732,55.07829195,-161,142,34.7267194,-78.662563
833,3040203,304020305,30402030503,27738.28,Raft Swamp,Richland Swamp,LBR,Lumber,5106,166771836.7,88470.00309,5993,5235,43.34106533,-887,758,34.7270613,-79.1237938
132,3030007,303000702,30300070203,19487.96,Headwaters Northeast Cape Fear River,Polly Run Creek-Northeast Cape Fear River,CPF,Cape Fear,2085,118241040.5,56843.84851,2894,2356,30.44993494,-809,538,34.7279398,-77.8765814
184,3030007,303000702,30300070201,19845.84,Headwaters Northeast Cape Fear River,Lewis Branch-Northeast Cape Fear River,CPF,Cape Fear,4326,120534522.9,54141.9858,4798,4191,31.00912317,-472,607,34.7279398,-77.8765814
314,3030007,303000708,30300070802,34936.35,Harrisons Creek-Northeast Cape Fear River,Pike Creek-Northeast Cape Fear River,CPF,Cape Fear,3685,208646899.6,74020.82807,3776,2797,54.58795059,-91,979,34.7279398,-77.8765814
1531,3020301,302030106,30203010604,21065.87,Oyster Creek-Jarrett Bay,Town of Marshallberg-Great Shoal,WOK,White Oak,789,126525195.4,56776.60532,914,998,,-125,-84,34.7279403,-76.5157565
827,3040203,304020312,30402031201,15996.04,Headwaters Ashpole Swamp,Horse Swamp,LBR,Lumber,975,95629973.75,55866.74795,1198,1119,24.99381416,-223,79,34.7329816,-77.2764329
1553,3020301,302030102,30203010205,12084.4,Outlet White Oak River,Pettiford Creek,WOK,White Oak,2006,72583376.03,42504.67365,1819,1221,,187,598,34.7342081,-77.0326979
852,3040203,304020303,30402030303,14950.65,Gum Swamp-Lumber River,Town of Maxton-Lumber River,LBR,Lumber,4391,89881395.72,57833.92483,3277,3085,23.36039353,1114,192,34.7351614,-79.3489317
862,3040203,304020307,30402030703,12549.96,Upper Big Swamp,Goodman Swamp,LBR,Lumber,844,75394953.26,49719.95946,852,733,19.60930549,-8,119,34.7376626,-78.8156087
1607,3020302,302030201,30203020105,11967.92,Headwaters New River,Wilson Bay-New River,WOK,White Oak,25768,71916998.62,43768.65582,26108,25128,,-340,980,34.7380956,-77.4286011
285,3030007,303000706,30300070605,16837.97,Angola Swamp-Northeast Cape Fear River,Angola Creek,CPF,Cape Fear,379,101039752.2,54281.34808,411,437,26.30933638,-32,-26,34.7496744,-77.7187389
167,3030006,303000602,30300060205,12046.06,Lower South River,Cypress Creek,CPF,Cape Fear,323,72453614.38,47761.8339,403,320,18.82197315,-80,83,34.7515554,-77.7049757
213,3030007,303000704,30300070403,22327.39,Cypress Creek-Northeast Cape Fear River,Cypress Creek,CPF,Cape Fear,1228,134252406,63497.13526,1456,1372,34.8865505,-228,84,34.7515554,-77.7049757
295,3030007,303000707,30300070701,13945.53,Long Creek,Bee Branch-Cypress Creek,CPF,Cape Fear,331,83473746.37,51479.0863,395,375,21.78988557,-64,20,34.7515554,-77.7049757
654,3010204,301020409,30102040901,19703.64,Tarrara Creek-Meherrin River,Cypress Creek,CHO,Chowan,925,122258602.2,64150.44104,1136,1251,30.43504336,-211,-115,34.7515554,-77.7049757
885,3040206,304020602,30402060204,25415.05,White Marsh,Cypress Creek-White Marsh,LBR,Lumber,1391,150852277.7,71101.50416,1730,1510,39.71101175,-339,220,34.7515554,-77.7049757
112,3030007,303000705,30300070502,14686.53,Rockfish Creek,Upper Doctors Creek,CPF,Cape Fear,601,88234566.46,47606.34067,690,644,22.94770415,-89,46,34.7537854,-78.1222035
173,3030007,303000705,30300070503,20861.25,Rockfish Creek,Lower Doctors Creek,CPF,Cape Fear,742,125236987.1,61330.52926,763,793,32.59570819,-21,-30,34.7537854,-78.1222035
1539,3020302,302030201,30203020102,22743.46,Headwaters New River,Headwaters New River,WOK,White Oak,4816,137201552.3,63337.88499,3998,3086,,818,912,34.7540836,-77.4693666
1544,3020302,302030201,30203020103,18267.49,Headwaters New River,Cowhorn Swamp-New River,WOK,White Oak,6570,110122859.1,67528.58274,4712,1852,,1858,2860,34.7540836,-77.4693666
1618,3020302,302030201,30203020104,39327.64,Headwaters New River,Blue Creek-New River,WOK,White Oak,32021,236714108.8,76379.27289,25112,17101,,6909,8011,34.7540836,-77.4693666
7,3030005,303000502,30300050205,21187.77,Turnbull Creek-Cape Fear River,Lower Turnbull Creek,CPF,Cape Fear,1667,127044739.1,51804.55138,2113,1712,33.10588932,-446,401,34.7594165,-78.6114768
74,3030005,303000502,30300050204,13902.85,Turnbull Creek-Cape Fear River,Middle Turnbull Creek,CPF,Cape Fear,344,83541380.31,54271.13669,431,484,21.72320521,-87,-53,34.7594165,-78.6114768
77,3030005,303000502,30300050203,21411.83,Turnbull Creek-Cape Fear River,Upper Turnbull Creek,CPF,Cape Fear,428,128961494.2,55909.36387,464,517,33.45597895,-36,-53,34.7594165,-78.6114768
1470,3020201,302020105,30202010501,21583.2,Middle Falls Lake,Lodge Creek,NEU,Neuse,6999,134181269.2,75491.59849,5895,3841,,1104,2054,34.767732,-76.8173138
163,3030007,303000704,30300070405,22039.97,Cypress Creek-Northeast Cape Fear River,Oakie Branch-Northeast Cape Fear River,CPF,Cape Fear,2192,132515951.2,68992.20881,2415,1493,34.43746794,-223,922,34.7695698,-77.9383602
183,3030007,303000704,30300070401,11531.81,Cypress Creek-Northeast Cape Fear River,Ninemile Creek,CPF,Cape Fear,1328,69312979.63,38509.91585,1464,1141,18.01845905,-136,323,34.7696408,-77.6621956
1627,3020301,302030104,30203010401,21381.85,Newport River,Upper Newport River,WOK,White Oak,1568,128618089.7,46023.45137,1593,1194,,-25,399,34.7719043,-76.8446894
1637,3020301,302030104,30203010402,24602.15,Newport River,Middle Newport River,WOK,White Oak,11865,147965809,58312.5038,11810,9648,,55,2162,34.7719043,-76.8446894
1561,3020302,302030202,30203020202,14998.83,New River,Little Northeast Creek,WOK,White Oak,10318,90172338.46,42121.88931,8535,6824,,1783,1711,34.7734577,-77.3137736
200,3030006,303000602,30300060202,32469.89,Lower South River,Big Swamp,CPF,Cape Fear,3225,196317922.2,92486.48374,3564,3549,50.7342028,-339,15,34.7790474,-78.7360505
808,3040201,304020105,30402010501,20554.18,Reedys Branch-Pee Dee River,Westfield Creek,YAD,Yadkin Pee Dee,228,18598713.98,25491.14839,260,300,4.828796777,-32,-40,34.7831338,-79.9696124
189,3030007,303000705,30300070501,13425.94,Rockfish Creek,Duff Creek,CPF,Cape Fear,1370,80778747.25,46268.19149,1772,1384,20.97803648,-402,388,34.7846131,-78.0524873
13,3030005,303000501,30300050103,31171.72,Harrison Creek-Cape Fear River,Harrison Creek,CPF,Cape Fear,1189,187795705.5,106511.6388,1408,1399,48.70582115,-219,9,34.7855521,-78.7249443
1619,3020301,302030104,30203010406,24596.96,Newport River,Newport Marshes-Lower Newport River,WOK,White Oak,12541,147811421.6,65103.91028,12628,11839,,-87,789,34.7865497,-76.8591057
115,3030006,303000604,30300060408,11169.94,Great Coharie Creek,Turtle Branch-Great Coharie Creek,CPF,Cape Fear,1162,67201382.45,42226.53151,1175,1370,17.45302679,-13,-195,34.7896148,-78.3124988
121,3030006,303000604,30300060402,22435.23,Great Coharie Creek,Headwaters Great Coharie Creek,CPF,Cape Fear,1974,136406712.3,71389.14887,2182,2024,35.05505001,-208,158,34.7896148,-78.3124988
123,3030006,303000604,30300060404,23578.09,Great Coharie Creek,Marsh Swamp-Great Coharie Creek,CPF,Cape Fear,1786,142987469.9,68284.08554,1939,1762,36.84076008,-153,177,34.7896148,-78.3124988
148,3030006,303000604,30300060407,18028.35,Great Coharie Creek,Mill Creek-Great Coharie Creek,CPF,Cape Fear,1520,108693510.8,62932.48871,1845,1583,28.16929671,-325,262,34.7896148,-78.3124988
1571,3020301,302030104,30203010404,7958.71,Newport River,Harlowe Creek,WOK,White Oak,547,47896467.7,28882.98551,519,433,,28,86,34.7898543,-76.7047797
48,3030004,303000402,30300040201,17214.66,Upper Little River,Headwaters Upper Little River,CPF,Cape Fear,9361,105115229.8,50449.73514,8479,7545,26.89790111,882,934,34.8002309,-78.4824501
100,3030004,303000402,30300040204,25493.27,Upper Little River,Jones Creek-Upper Little River,CPF,Cape Fear,4654,155647585.3,66222.66587,4676,3855,39.83322863,-22,821,34.8002309,-78.4824501
798,3040204,304020402,30402040201,18523.66,Leith Creek,Headwaters Leith Creek,LBR,Lumber,6583,111366410.2,75911.15239,7457,8082,28.94321484,-874,-625,34.8016904,-79.4591268
869,3040204,304020402,30402040203,19051.28,Leith Creek,Leith Creek,LBR,Lumber,1272,105883790.2,65510.10223,1450,1458,27.59356145,-178,-8,34.8016904,-79.4591268
144,3030007,303000704,30300070404,19104.56,Cypress Creek-Northeast Cape Fear River,Island Creek,CPF,Cape Fear,3278,114975159.1,52264.54927,3848,3355,29.85088309,-570,493,34.8073223,-77.9053182
240,3030007,303000708,30300070805,24429.86,Harrisons Creek-Northeast Cape Fear River,Island Creek-Northeast Cape Fear River,CPF,Cape Fear,1986,145479687.4,68776.5671,1586,1346,38.17166111,400,240,34.8073223,-77.9053182
369,3040105,304010507,30401050703,14049.04,Lower Rocky River,Island Creek,YAD,Yadkin Pee Dee,3938,85414290.46,46668.82607,3732,3072,21.95163225,206,660,34.8073223,-77.9053182
1643,3010102,301010209,30101020902,32498.09,Butcher Creek-John H Kerr Reservoir,Island Creek,ROA,Roanoke,1634,183608061.7,98552.44054,1781,1759,,-147,22,34.8073223,-77.9053182
800,3040201,304020103,30402010305,29287.34,Marks Creek-Pee Dee River,Everetts Lake-Marks Creek,YAD,Yadkin Pee Dee,6339,158456830.9,96011.75885,6880,7193,41.10386577,-541,-313,34.8155551,-79.8835827
1112,3010205,301020510,30102051002,32282.59,North River,Great Swamp-North River,PAS,Pasquotank,1318,201732533.4,70472.26122,1296,1190,,22,106,34.81639,-76.63611
1196,3010205,301020510,30102051003,47163.21,North River,North River,PAS,Pasquotank,1822,293919246.8,82040.7263,1650,1295,,172,355,34.81639,-76.63611
1538,3020301,302030105,30203010503,14221.06,North River,Outlet North River,WOK,White Oak,3987,85398195.78,41633.40022,3991,3463,,-4,528,34.81639,-76.63611
1610,3020301,302030105,30203010502,18587.76,North River,Headwaters North River,WOK,White Oak,1463,111840322.3,45113.1896,1280,1256,,183,24,34.81639,-76.63611
839,3040203,304020306,30402030605,21783.29,Gallberry Swamp,Gallberry Swamp,LBR,Lumber,5797,131299795.2,75803.32359,5049,3391,34.03638819,748,1658,34.8210849,-78.8976988
785,3040201,304020104,30402010401,20139.22,Thompson Creek,Deadfall Creek,YAD,Yadkin Pee Dee,193,120715513.1,56317.52487,197,169,31.31206683,-4,28,34.8246289,-80.208419
843,3040204,304020401,30402040103,21755.25,Upper Little Pee Dee River,Joes Creek,LBR,Lumber,2003,130975404.7,73722.95952,2362,2249,33.99258216,-359,113,34.824807,-79.5842116
1549,3020301,302030101,30203010105,9751.3,Headwaters White Oak River,Holston Creek,WOK,White Oak,108,58722247.92,35832.3207,127,164,,-19,-37,34.8277228,-77.1521087
774,3040204,304020401,30402040102,13327.2,Upper Little Pee Dee River,Richmond Mill Lake-Upper Gum Swamp Creek,LBR,Lumber,1433,80283716.24,41862.70389,1567,1685,20.82375431,-134,-118,34.8280386,-79.5329451
986,3020202,302020206,30202020602,26615.55,Hog Island-Neuse River,Outlet Core Creek,NEU,Neuse,1303,161814691,57402.26994,1397,1401,41.58680467,-94,-4,34.8284943,-76.6929868
1003,3020202,302020206,30202020601,20898.61,Hog Island-Neuse River,Headwaters Core Creek,NEU,Neuse,956,126877394.5,59664.82039,1032,1076,32.65408392,-76,-44,34.8284943,-76.6929868
1617,3020301,302030104,30203010405,8079.28,Newport River,Core Creek,WOK,White Oak,1224,48620666.43,33914.10729,1319,759,,-95,560,34.8284943,-76.6929868
1601,3020301,302030101,30203010104,9870.16,Headwaters White Oak River,Starkys Creek,WOK,White Oak,663,59447234.32,38064.70155,809,620,,-146,189,34.8429545,-77.2361998
584,6010203,601020304,60102030401,28192.59,Lower Tuckasegee River,Deep Creek,LTN,Little Tennessee,650,172569114.5,66143.25166,695,703,44.0308593,-45,-8,34.8529329,-80.1586735
681,3010106,301010604,30101060403,18752.82,Lower Lake Gaston-Roanoke River,Deep Creek,ROA,Roanoke,1498,117493973.1,59444.72962,1620,1738,29.3012826,-122,-118,34.8529329,-80.1586735
1208,3020102,302010206,30201020605,24304.05,Lower Fishing Creek,Lower Deep Creek,TAR,Tar-Pamlico,871,150536191.5,58494.42615,978,969,,-107,9,34.8529329,-80.1586735
1214,3020102,302010206,30201020604,24847.12,Lower Fishing Creek,Middle Deep Creek,TAR,Tar-Pamlico,2012,154253379.1,70136.89237,2433,2664,,-421,-231,34.8529329,-80.1586735
1219,3020102,302010206,30201020603,9126.92,Lower Fishing Creek,Upper Deep Creek,TAR,Tar-Pamlico,269,56808081.67,43098.78808,380,409,,-111,-29,34.8529329,-80.1586735
1359,3020201,302020101,30202010103,23601.63,Flat River,Deep Creek,NEU,Neuse,3380,147391447.1,81304.57443,3387,2747,,-7,640,34.8529329,-80.1586735
181,3030005,303000501,30300050102,26751.45,Harrison Creek-Cape Fear River,Willis Creek-Cape Fear River,CPF,Cape Fear,10086,161263693.1,82161.636,7538,5386,41.79914295,2548,2152,34.8544851,-78.8386176
830,3040203,304020306,30402030604,25970.18,Gallberry Swamp,Lower Big Marsh Swamp,LBR,Lumber,6084,156270514.1,79142.43556,7277,6701,40.57841461,-1193,576,34.8554158,-79.0360946
860,3040203,304020306,30402030603,15950.66,Gallberry Swamp,Upper Big Marsh Swamp,LBR,Lumber,1270,96213718.7,52097.09811,1119,1060,24.9229067,151,59,34.8554158,-79.0360946
892,3050103,305010306,30501030603,33616.82,Fishing Creek Reservoir-Catawba River,Waxhaw Creek,CAT,Catawba,5414,136494823.7,65782.32552,5029,3935,35.38887209,385,1094,34.8559163,-80.7296922
850,3040203,304020305,30402030502,22580.78,Raft Swamp,Little Raft Swamp,LBR,Lumber,4075,136062934.8,96157.21608,4777,4452,35.28246218,-702,325,34.8658099,-79.2112094
1388,3020105,302010504,30201050402,23375.63,Cape Lookout Shoals-Core Banks,Styron Bay-Cedar Inlet,TAR,Tar-Pamlico,940,140483794,53068.81766,1266,1218,,-326,48,34.8671414,-76.3608343
196,3030007,303000703,30300070305,22353.23,Limestone Creek-Northeast Cape Fear River,Maxwell Creek-Stocking Head Creek,CPF,Cape Fear,867,134744375.9,63519.07549,1125,779,34.92692868,-258,346,34.8714216,-77.8945939
818,3040201,304020102,30402010202,22833.83,Jones Creek,South Fork Jones Creek,YAD,Yadkin Pee Dee,929,137602731.1,59809.26178,1205,1310,35.67785416,-276,-105,34.8731183,-80.0869691
791,3040203,304020306,30402030601,21775.03,Gallberry Swamp,Upper Little Marsh Swamp,LBR,Lumber,3158,131285496.1,70098.74832,3584,3457,34.02349117,-426,127,34.8769869,-79.0192193
796,3040203,304020306,30402030602,11968.85,Gallberry Swamp,Lower Little Marsh Swamp,LBR,Lumber,3437,72058086.57,47747.55722,3788,3054,18.70132616,-351,734,34.8769869,-79.0192193
1542,3020301,302030102,30203010203,8515.44,Outlet White Oak River,Mulberry Creek-White Oak River,WOK,White Oak,733,51225317.19,50146.62944,538,493,,195,45,34.8814492,-77.2201721
1564,3020301,302030102,30203010206,21381.28,Outlet White Oak River,White Oak River,WOK,White Oak,6180,128428039.1,70507.39152,5199,3865,,981,1334,34.8814492,-77.2201721
1576,3020301,302030101,30203010101,17331.92,Headwaters White Oak River,Headwaters White Oak River,WOK,White Oak,245,104586730.8,41038.60436,241,162,,4,79,34.8814492,-77.2201721
1445,3020204,302020406,30202040602,23611.86,Town of Oriental-Neuse River,Clubfoot Creek,NEU,Neuse,3030,142343939.7,59660.06143,2855,2419,,175,436,34.8837972,-76.7509648
814,3040201,304020103,30402010302,15141.47,Marks Creek-Pee Dee River,Solomons Creek,YAD,Yadkin Pee Dee,1520,91243661.04,47203.63512,1693,1741,23.65854598,-173,-48,34.8854954,-79.8321174
778,3040203,304020303,30402030301,20658.95,Gum Swamp-Lumber River,Town of Wagram-Lumber River,LBR,Lumber,2031,124558660.2,66608.22276,2301,2283,32.27961117,-270,18,34.8879396,-79.3661515
1589,3020301,302030101,30203010106,11511.17,Headwaters White Oak River,Black Swamp Creek-White Oak River,WOK,White Oak,1118,69384543.75,53215.48452,1280,1303,,-162,-23,34.8923895,-77.1571317
1630,3020301,302030101,30203010103,22402.24,Headwaters White Oak River,Black Swamp Creek,WOK,White Oak,184,135091415.9,60259.75465,182,178,,2,4,34.8923895,-77.1571317
1434,3020204,302020405,30202040504,18154.93,Cherry Point-Neuse River,Cherry Point-Hancock Creek,NEU,Neuse,5055,109463778.2,50829.07419,5787,5743,,-732,44,34.895216,-76.8547978
1519,3020204,302020406,30202040604,35299.69,Town of Oriental-Neuse River,Adams Creek,NEU,Neuse,962,212874612.6,79815.78379,1044,1021,,-82,23,34.8984152,-76.6701442
1602,3020302,302030201,30203020101,10792.82,Headwaters New River,Town of Richlands-Squires Run,WOK,White Oak,3558,65137108.49,39769.32677,2585,1695,,973,890,34.8993297,-77.5466342
282,3040101,304010106,30401010602,11215.83,Elkin Creek-Yadkin River,Grays Creek-Yadkin River,YAD,Yadkin Pee Dee,1257,69836699.33,48438.66073,1339,1346,17.52472876,-82,-7,34.8994521,-78.8609122
139,3030007,303000703,30300070304,22021.69,Limestone Creek-Northeast Cape Fear River,Headwaters Maxwell Creek,CPF,Cape Fear,2116,132765799.8,65822.27866,2369,2047,34.40888668,-253,322,34.902628,-77.9766839
1636,3020301,302030101,30203010102,20289.73,Headwaters White Oak River,Town of Maysville-White Oak River,WOK,White Oak,1331,122399565.8,47058.61025,1393,1108,,-62,285,34.9048814,-77.2313436
810,3040201,304020102,30402010201,22911.66,Jones Creek,North Fork Jones Creek,YAD,Yadkin Pee Dee,6314,138286473.6,65009.05995,7528,7426,35.79946222,-1214,102,34.9085919,-80.0339181
875,3050103,305010302,30501030204,20588.25,Twelvemile Creek,Twelvemile Creek,CAT,Catawba,16137,51042318.03,41758.64537,8818,3579,13.21586496,7319,5239,34.909344,-80.7878919
980,3060102,306010202,30601020204,24588.46,Chattooga River,Upper Chattooga River,SAV,Savannah,64,34238369.3,33771.80358,71,54,8.84500668,-7,17,34.9265591,-83.2076373
1045,3060102,306010202,30601020201,17955,Chattooga River,Headwaters Chattooga River,SAV,Savannah,958,108513181.2,57856.32648,864,742,28.00274653,94,122,34.9265591,-83.2076373
1067,3060102,306010202,30601020202,28012.12,Chattooga River,Headwaters West Fork Chattooga River,SAV,Savannah,860,98277453.06,59997.58006,744,654,25.38889575,116,90,34.9265591,-83.2076373
1513,3020204,302020405,30202040502,37613.2,Cherry Point-Neuse River,Cherry Point Marine Corps Air Station-Slocum Creek,NEU,Neuse,18141,226846131.9,97524.78661,21228,21348,,-3087,-120,34.9518267,-76.8946632
1471,3020204,302020409,30202040901,25622.19,Neuse River-Pamlico Sound,West Thorofare Bay-Long Bay,NEU,Neuse,38,154649591.1,51302.30352,44,34,,-6,10,34.9522746,-76.3955603
27,3030003,303000306,30300030605,8442.39,Lower Deep River,Cedar Creek,CPF,Cape Fear,752,51770491.47,38467.66865,872,851,13.19123076,-120,21,34.9559997,-78.7572427
124,3030005,303000501,30300050101,18467.36,Harrison Creek-Cape Fear River,Cedar Creek-Cape Fear River,CPF,Cape Fear,3085,111477726.5,70625.918,3568,3430,28.85524437,-483,138,34.9559997,-78.7572427
331,3040101,304010114,30401011402,14904.7,Dutchmans Creek,Cedar Creek,YAD,Yadkin Pee Dee,2447,92348432.5,60715.60933,2421,2089,23.28859412,26,332,34.9559997,-78.7572427
362,3040104,304010405,30401040501,9888.68,Pee Dee River-Blewett Falls Lake,Cedar Creek,YAD,Yadkin Pee Dee,383,59816864.91,44371.69795,456,475,15.45106656,-73,-19,34.9559997,-78.7572427
1073,3050105,305010503,30501050304,16496.29,Headwaters Broad River,Cedar Creek,BRD,Broad,842,100958712.4,54771.15071,902,607,25.77545977,-60,295,34.9559997,-78.7572427
1235,3020101,302010104,30201010402,11431.94,Crooked Creek-Tar River,Lower Cedar Creek,TAR,Tar-Pamlico,1566,70892359.67,40050.23054,1056,709,,510,347,34.9559997,-78.7572427
1285,3020101,302010104,30201010401,30180.31,Crooked Creek-Tar River,Upper Cedar Creek,TAR,Tar-Pamlico,13354,187299516.2,71002.38329,9435,6258,,3919,3177,34.9559997,-78.7572427
111,3030006,303000601,30300060107,26480.89,Upper South River,Jones Swamp-South River,CPF,Cape Fear,3532,160410286.3,81695.90727,3584,2969,41.37639501,-52,615,34.95861,-76.5972199
127,3030006,303000602,30300060206,21409.16,Lower South River,Peters Creek-South River,CPF,Cape Fear,560,128933914.7,63756.68045,617,579,33.45181121,-57,38,34.95861,-76.5972199
128,3030006,303000602,30300060203,17204.06,Lower South River,Gum Swamp-South River,CPF,Cape Fear,1157,103879228.2,70692.46061,1399,1332,26.88134529,-242,67,34.95861,-76.5972199
172,3030006,303000601,30300060105,21487.27,Upper South River,Williamson Swamp-South River,CPF,Cape Fear,3132,130443027.6,64865.98207,3372,3152,33.57385746,-240,220,34.95861,-76.5972199
191,3030006,303000602,30300060207,23267.4,Lower South River,Smith Mill Pond Run-South River,CPF,Cape Fear,694,139787567.2,59489.56699,851,796,36.3553127,-157,55,34.95861,-76.5972199
202,3030006,303000602,30300060208,34298.39,Lower South River,Lake Creek-South River,CPF,Cape Fear,551,205581077.3,79487.10262,610,519,53.59122687,-59,91,34.95861,-76.5972199
1460,3020204,302020407,30202040701,33065.65,Neuse River,South River,NEU,Neuse,265,199531181.6,79701.01824,269,252,,-4,17,34.95861,-76.5972199
43,3030004,303000406,30300040611,11336.28,Rockfish Creek,Lower Rockfish Creek,CPF,Cape Fear,9908,68463382.35,50904.3071,8371,6470,17.71293236,1537,1901,34.9602329,-78.8612554
68,3030004,303000406,30300040604,18504.38,Rockfish Creek,Upper Rockfish Creek,CPF,Cape Fear,8293,111844466.8,74898.70136,8279,7777,28.91310125,14,502,34.9602329,-78.8612554
101,3030004,303000406,30300040602,29460.25,Rockfish Creek,Headwaters Rockfish Creek,CPF,Cape Fear,1599,178511381.6,68800.47229,1500,1564,46.03163583,99,-64,34.9602329,-78.8612554
108,3030004,303000406,30300040607,29410.76,Rockfish Creek,Middle Rockfish Creek,CPF,Cape Fear,36832,177635065.2,88516.34501,29366,23103,45.95430727,7466,6263,34.9602329,-78.8612554
174,3030007,303000705,30300070504,30981.79,Rockfish Creek,Upper Rockfish Creek,CPF,Cape Fear,1598,186431150.7,94837.82702,1867,1547,48.40904257,-269,320,34.9602329,-78.8612554
187,3030007,303000705,30300070506,19691.74,Rockfish Creek,Lower Rockfish Creek,CPF,Cape Fear,5777,118266551.5,71442.76678,6582,5944,30.76834864,-805,638,34.9602329,-78.8612554
766,3040201,304020101,30402010102,28323.19,Hitchcock Creek,Upper Hitchcock Creek,YAD,Yadkin Pee Dee,2468,171201958.1,72037.70139,2671,2417,44.25497884,-203,254,34.9619382,-79.7547071
771,3040201,304020101,30402010104,13499.7,Hitchcock Creek,Middle Hitchcock Creek,YAD,Yadkin Pee Dee,7325,81567319.26,42667.31935,7575,7559,21.09328927,-250,16,34.9619382,-79.7547071
823,3040201,304020101,30402010105,8591.31,Hitchcock Creek,Lower Hitchcock Creek,YAD,Yadkin Pee Dee,4212,51842030.82,32985.93343,4472,4274,13.42391843,-260,198,34.9619382,-79.7547071
1175,6020002,602000203,60200020302,33574.88,Brasstown Creek-Hiwassee River,Lower Brasstown Creek,HIW,Hiwassee,2584,132254555.2,59759.93677,2557,1894,,27,663,34.9624957,-83.8923056
373,3040105,304010505,30401050502,9366.1,Richardson Creek,Rays Fork,YAD,Yadkin Pee Dee,3180,56562481.32,35959.39127,3229,2574,14.63453131,-49,655,34.9655433,-80.4590713
140,3030007,303000703,30300070301,24831.61,Limestone Creek-Northeast Cape Fear River,Grove Creek,CPF,Cape Fear,3074,150017062.2,69084.0458,3630,3130,38.79939128,-556,500,34.9752465,-77.9566984
131,3030006,303000603,30300060303,16148.02,Little Coharie Creek,Bearskin Swamp,CPF,Cape Fear,1566,97643553.94,60398.62881,1834,1476,25.2312781,-268,358,34.9763451,-78.458142
1141,3060101,306010101,30601010102,16111.16,Headwaters Keowee River-Lake Jocassee,Toxaway River-Lake Jocassee,SAV,Savannah,439,55323821.51,45822.71539,546,435,,-107,111,34.9812854,-82.9232635
984,3060102,306010201,30601020101,19715.47,Tallulah River,Headwaters Tallulah River,SAV,Savannah,118,40906720.28,37368.53231,14,96,10.57099426,104,-82,34.9878461,-83.5496557
367,3040105,304010506,30401050601,21601.09,Lanes Creek,Upper Lanes Creek,YAD,Yadkin Pee Dee,2458,126894997.8,51164.9168,2427,2236,32.91209977,31,191,34.9907783,-80.3434019
423,3040105,304010506,30401050604,34027,Lanes Creek,Lower Lanes Creek,YAD,Yadkin Pee Dee,3640,205877074.1,100740.6718,3960,3683,53.16718743,-320,277,34.9907783,-80.3434019
427,3040105,304010506,30401050602,21083.53,Lanes Creek,Middle Lanes Creek,YAD,Yadkin Pee Dee,1959,127157436.3,65007.55622,2001,1782,32.94302033,-42,219,34.9907783,-80.3434019
1148,6020002,602000201,60200020106,17461.66,Chatuge Lake-Hiwassee River,Chatuge Lake,HIW,Hiwassee,541,36431890.23,41667.93319,511,384,,30,127,34.991424,-83.7849672
721,6010202,601020201,60102020101,23189.94,Headwaters Little Tennessee River,Betty Creek-Little Tennessee River,LTN,Little Tennessee,145,24993034.49,23121.58428,145,77,6.458793648,0,68,34.9931388,-83.4269815
182,3030006,303000603,30300060304,17045.85,Little Coharie Creek,Rye Swamp-Little Coharie Creek,CPF,Cape Fear,3007,103013366.6,58314.82084,3127,3288,26.63413256,-120,-161,34.994093,-78.5089037
358,3040105,304010505,30401050501,9742.44,Richardson Creek,Bearskin Creek,YAD,Yadkin Pee Dee,14102,58884345.26,42551.7271,14452,11285,15.22256478,-350,3167,34.9942483,-80.5771645
958,3050103,305010302,30501030202,34351.71,Twelvemile Creek,East Fork Twelvemile Creek,CAT,Catawba,47081,207544981.9,78358.61737,37613,14312,53.67454344,9468,23301,34.9964015,-80.6718714
386,3040104,304010401,30401040104,16201.45,Brown Creek,Goulds Fork,YAD,Yadkin Pee Dee,2193,97908059.09,56100.84503,2628,2742,25.3147669,-435,-114,34.9977873,-80.1149398
177,3030007,303000702,30300070206,12181.56,Headwaters Northeast Cape Fear River,Dark Branch-Northeast Cape Fear River,CPF,Cape Fear,639,73641298.42,43135.23371,827,672,19.03368909,-188,155,34.9991661,-77.9009014
221,3030006,303000602,30300060204,16439.49,Lower South River,Beaver Dam Creek,CPF,Cape Fear,704,99143809.03,58481.05759,718,719,25.68669622,-14,-1,35.0037479,-79.4633546
1464,3020204,302020402,30202040206,17523.73,Middle Trent River,Town of Pollocksville-Trent River,NEU,Neuse,1041,105916782.8,44348.49559,1176,1229,,-135,-53,35.0059914,-77.2210654
160,3030006,303000604,30300060406,21501.46,Great Coharie Creek,Williams Old Mill Branch-Great Coharie Creek,CPF,Cape Fear,10132,129913095.1,62568.50155,10574,10276,33.59603954,-442,298,35.00724,-78.3515065
1324,3020104,302010407,30201040702,8139.05,Pamlico River,Cedar Island-Oyster Creek,TAR,Tar-Pamlico,66,49566281.08,31936.51808,134,153,,-68,-19,35.0081042,-76.3153827
1537,3020204,302020409,30202040902,30846.24,Neuse River-Pamlico Sound,Cedar Island-West Bay,NEU,Neuse,109,186520048.7,71001.49538,127,135,,-18,-8,35.0081042,-76.3153827
1001,6020003,602000302,60200030207,35294.28,Ocoee River,Wolf Creek-Toccoa River,HIW,Hiwassee,322,19247564.58,18898.33277,292,236,4.973969795,30,56,35.0136916,-84.3038092
886,3050103,305010302,30501030201,14424.67,Twelvemile Creek,West Fork Twelvemile Creek,CAT,Catawba,26231,87234876.91,52885.581,18601,6989,22.53854288,7630,11612,35.0139977,-80.7269806
1172,6020003,602000302,60200030203,16719.88,Ocoee River,Hothouse Creek,HIW,Hiwassee,603,37781377.4,29950.49105,512,442,,91,70,35.0183513,-84.2765976
1437,3020204,302020403,30202040302,26684.96,Lower Trent River,Island Creek-Trent River,NEU,Neuse,5037,161485461.7,56326.51555,5120,4733,,-83,387,35.0184346,-77.1575196
113,3030006,303000605,30300060501,18622.34,Six Runs Creek,Headwaters Six Runs Creek,CPF,Cape Fear,902,112928741.1,47463.37049,995,916,29.09741219,-93,79,35.0194103,-78.2362169
117,3030006,303000605,30300060503,19720.57,Six Runs Creek,Tenmile Swamp-Six Runs Creek,CPF,Cape Fear,2418,119327580.9,73289.13781,2395,2199,30.81339749,23,196,35.0194103,-78.2362169
129,3030006,303000605,30300060502,17225.15,Six Runs Creek,Mill Swamp-Six Runs Creek,CPF,Cape Fear,1430,104321306.1,57760.3923,1741,1887,26.91429889,-311,-146,35.0194103,-78.2362169
142,3030006,303000605,30300060510,12424.58,Six Runs Creek,Tarkill Branch-Six Runs Creek,CPF,Cape Fear,626,74790533.57,45754.55761,583,531,19.41340675,43,52,35.0194103,-78.2362169
145,3030006,303000605,30300060504,17845.15,Six Runs Creek,Turkey Creek-Six Runs Creek,CPF,Cape Fear,1437,107884050.2,62515.27336,1693,1685,27.88304795,-256,8,35.0194103,-78.2362169
165,3030006,303000605,30300060507,20332.71,Six Runs Creek,Rowan Branch-Six Runs Creek,CPF,Cape Fear,3163,122765586.7,64924.86161,3359,3283,31.76985386,-196,76,35.0194103,-78.2362169
215,3030006,303000605,30300060509,16639.34,Six Runs Creek,Quewhiffle Creek-Six Runs Creek,CPF,Cape Fear,500,100231955.2,52088.7249,581,544,25.99896132,-81,37,35.0194103,-78.2362169
398,3040104,304010405,30401040506,25058.52,Pee Dee River-Blewett Falls Lake,Pee Dee River-Blewett Falls Lake,YAD,Yadkin Pee Dee,310,151566493.3,79097.91901,392,350,39.15392991,-82,42,35.0204217,-79.8940806
138,3030006,303000603,30300060305,20507.09,Little Coharie Creek,Rattlesnake Branch-Little Coharie Creek,CPF,Cape Fear,732,123608663.5,55616.68064,785,763,32.04232501,-53,22,35.0213469,-78.4865444
219,3030006,303000603,30300060302,17371.28,Little Coharie Creek,Mill Swamp-Little Coharie Creek,CPF,Cape Fear,1498,105195364.4,59519.04597,1754,1606,27.14261635,-256,148,35.0213469,-78.4865444
868,3040201,304020103,30402010301,19543.41,Marks Creek-Pee Dee River,Cartledge Creek,YAD,Yadkin Pee Dee,1633,118188455.3,54525.22761,2092,2008,30.53657397,-459,84,35.0222132,-79.818457
1396,3020201,302020109,30202010901,36323.49,Middle Creek,UpperMiddle Creek,NEU,Neuse,80647,223079282.6,82368.15378,58491,29669,,22156,28822,35.0243026,-83.354167
5,3030004,303000406,30300040603,12448.59,Rockfish Creek,Nicholson Creek,CPF,Cape Fear,157,75380091.05,47021.9872,159,131,19.45092756,-2,28,35.0252655,-79.2211467
1187,6020002,602000201,60200020105,32582.61,Chatuge Lake-Hiwassee River,Shooting Creek,HIW,Hiwassee,2556,187847284.5,66021.91287,2454,2054,,102,400,35.0256473,-83.6668327
1476,3020204,302020406,30202040601,15084.08,Town of Oriental-Neuse River,Dawson Creek,NEU,Neuse,1023,91222367.02,42861.9766,1165,1139,,-142,26,35.0284175,-76.8110047
26,3030004,303000407,30300040707,22612.9,Cross Creek-Cape Fear River,Locks Creek-Cape Fear River,CPF,Cape Fear,7012,136707376.4,59576.25618,6864,6414,35.33265598,148,450,35.0292344,-78.7759139
412,3040105,304010505,30401050503,22616.45,Richardson Creek,Lake Twitty-Stewarts Creek,YAD,Yadkin Pee Dee,14807,136859796.6,55010.80102,14175,10962,35.33820845,632,3213,35.0301559,-80.4879197
1488,3020204,302020406,30202040605,18091.17,Town of Oriental-Neuse River,Town of Oriental-Neuse River,NEU,Neuse,0,109278932.1,58582.80229,0,0,,0,0,35.0309956,-76.6929867
1443,3020204,302020401,30202040103,21338.77,Upper Trent River,Outlet Tuckahoe Swamp,NEU,Neuse,626,129050548.1,57956.17838,661,688,,-35,-27,35.0314501,-77.7051406
1506,3020204,302020401,30202040102,14903.81,Upper Trent River,Headwaters Tuckahoe Swamp,NEU,Neuse,2198,90174920.75,45436.61264,1992,1810,,206,182,35.0314501,-77.7051406
773,3040201,304020101,30402010101,24944.97,Hitchcock Creek,Rocky Fork Creek,YAD,Yadkin Pee Dee,1105,151007776.3,57564.34376,1145,1051,38.9765222,-40,94,35.0317525,-79.700019
339,3040104,304010405,30401040503,9125.08,Pee Dee River-Blewett Falls Lake,Savannah Creek,YAD,Yadkin Pee Dee,148,55215388.59,43464.4602,174,193,14.25793655,-26,-19,35.0341884,-79.9528336
558,6010203,601020303,60102030301,26219.67,Middle Tuckasegee River,Savannah Creek,LTN,Little Tennessee,4136,159648699.9,59055.54663,3971,3055,40.96823166,165,916,35.0341884,-79.9528336
208,3030007,303000701,30300070103,14736.12,Goshen Swamp,Nahunga Creek,CPF,Cape Fear,876,89161164.56,51443.79117,1283,913,23.02519501,-407,370,35.0362518,-78.0138123
141,3030007,303000701,30300070105,23273.62,Goshen Swamp,Lower Goshen Swamp,CPF,Cape Fear,1762,140877428.6,63441.11294,2443,1489,36.36502349,-681,954,35.0423509,-77.8953067
157,3030007,303000701,30300070104,34474.54,Goshen Swamp,Middle Goshen Swamp,CPF,Cape Fear,2711,208969429,82541.04013,3646,2954,53.8664734,-935,692,35.0423509,-77.8953067
180,3030007,303000701,30300070101,33747.45,Goshen Swamp,Upper Goshen Swamp,CPF,Cape Fear,2088,204863188.7,71540.91466,2379,2257,52.73039302,-291,122,35.0423509,-77.8953067
33,3030004,303000406,30300040606,11636.32,Rockfish Creek,Lower Puppy Creek,CPF,Cape Fear,11711,70352225.75,41928.87061,10116,3871,18.18175681,1595,6245,35.0439909,-79.1322737
54,3030004,303000406,30300040605,14220.12,Rockfish Creek,Upper Puppy Creek,CPF,Cape Fear,4134,86125077.53,42390.47169,3339,1873,22.21893057,795,1466,35.0439909,-79.1322737
1431,3020204,302020407,30202040704,21365.14,Neuse River,Turnagain Bay-Rattan Bay,NEU,Neuse,3,129145972.3,70793.43434,0,0,,3,0,35.0491617,-76.475106
18,3030004,303000407,30300040706,18506.28,Cross Creek-Cape Fear River,City of Fayetteville-Cape Fear River,CPF,Cape Fear,8310,112262738.8,69967.27704,8420,7608,28.91606631,-110,812,35.0523673,-78.8783774
1440,3020204,302020401,30202040106,8532.68,Upper Trent River,Little Chinquapin Branch-Trent River,NEU,Neuse,188,51646813.8,40597.5472,270,257,,-82,13,35.0532419,-77.389313
1465,3020204,302020401,30202040104,12635.84,Upper Trent River,Joshua Creek-Trent River,NEU,Neuse,330,76572239.45,49852.86805,335,341,,-5,-6,35.0532419,-77.389313
1495,3020204,302020401,30202040105,35131.49,Upper Trent River,Town of Comfort-Trent River,NEU,Neuse,732,212316708.6,67168.91356,744,773,,-12,-29,35.0532419,-77.389313
1498,3020204,302020402,30202040205,22898.72,Middle Trent River,Beaverdam Creek-Trent River,NEU,Neuse,731,138638751.4,57573.57089,740,824,,-9,-84,35.0532419,-77.389313
1521,3020204,302020401,30202040101,19191.65,Upper Trent River,Headwaters Trent River,NEU,Neuse,1575,116270951.2,61502.52321,1597,1503,,-22,94,35.0532419,-77.389313
1317,3020105,302010502,30201050210,9064.09,Pamlico Sound-Ocracoke Inlet,Oceanside Seashore-Portsmouth Island,TAR,Tar-Pamlico,0,3186010.035,73016.66773,0,0,,0,0,35.053398,-76.0536957
1612,3020204,302020409,30202040903,7131.37,Neuse River-Pamlico Sound,Portsmouth Island-Pamlico Sound,NEU,Neuse,1,43109915.48,56254.4978,7,2,,-6,5,35.053398,-76.0536957
1475,3020204,302020403,30202040304,13661.27,Lower Trent River,Outlet Brice Creek,NEU,Neuse,6775,82637489.27,47468.51426,5198,2400,,1577,2798,35.0559925,-77.0877273
1499,3020204,302020403,30202040303,28772.72,Lower Trent River,Headwaters Brice Creek,NEU,Neuse,2814,173736390.6,56762.13818,1588,666,,1226,922,35.0559925,-77.0877273
859,3040203,304020302,30402030205,14411.16,Lower Drowning Creek,Quewhiffle Creek,LBR,Lumber,2606,87274320.59,45195.32672,2261,2046,22.51743002,345,215,35.0574024,-79.4084886
1163,6020002,602000202,60200020203,27748.93,Tusquitee Creek-Hiwassee River,Sweetwater Creek-Hiwassee River,HIW,Hiwassee,4878,167951971.9,85155.70091,4627,4037,,251,590,35.0579683,-83.9107648
179,3030005,303000504,30300050406,26939.25,Hood Creek-Cape Fear River,Hood Creek,CPF,Cape Fear,5925,160040236.1,65474.70516,3730,2931,42.09258213,2195,799,35.0596613,-77.0794705
551,3050101,305010115,30501011508,12416.71,Lake Wylie-Catawba River,Torrence Branch-Lake Wylie,CAT,Catawba,5511,18076625.87,21580.32984,1806,610,4.665115281,3705,1196,35.0598289,-81.0119305
625,3010203,301020304,30102030404,15598.97,Wiccacon River,Chinkapin Creek,CHO,Chowan,435,97313625.57,47980.53908,565,578,24.37339,-130,-13,35.0622369,-80.4966058
335,3040105,304010505,30401050506,25016.9,Richardson Creek,Middle Richardson Creek,YAD,Yadkin Pee Dee,9549,151451920,71681.40469,8373,6395,39.08890749,1176,1978,35.0633547,-80.3712978
371,3040105,304010505,30401050507,26878.99,Richardson Creek,Lower Richardson Creek,YAD,Yadkin Pee Dee,1666,162923967.7,71344.78209,1691,1458,41.99842809,-25,233,35.0633547,-80.3712978
394,3040105,304010505,30401050504,38941.83,Richardson Creek,Upper Richardson Creek,YAD,Yadkin Pee Dee,18683,235038853.6,89326.88927,18384,17431,60.8466128,299,953,35.0633547,-80.3712978
921,3050105,305010505,30501050501,29716.55,Sandy Run-Broad River,Richardson Creek-Broad River,BRD,Broad,3314,165516422.7,59322.53188,3498,3245,42.54282449,-184,253,35.0633547,-80.3712978
1421,3020204,302020402,30202040204,43012.81,Middle Trent River,Town of Trenton-Trent River,NEU,Neuse,1461,260366052.1,94956.23064,1661,1708,,-200,-47,35.0641234,-77.3551852
703,6010202,601020203,60102020306,10674.92,Nantahala River,Fontana Lake-Nantahala River,LTN,Little Tennessee,307,65065155.12,47499.31809,329,338,16.67955622,-22,-9,35.0648016,-83.5443104
708,6010202,601020203,60102020302,23559.29,Nantahala River,Headwaters Nantahala River,LTN,Little Tennessee,403,142664847.3,64756.39596,430,261,36.81138944,-27,169,35.0648016,-83.5443104
61,3030004,303000407,30300040704,25638.72,Cross Creek-Cape Fear River,Cross Creek,CPF,Cape Fear,60796,155316994.6,69447.49188,60168,64911,40.0605016,628,-4743,35.0658439,-78.8948741
1452,3020204,302020405,30202040503,17390.56,Cherry Point-Neuse River,Beard Creek,NEU,Neuse,1391,105206630.6,60917.37085,1295,1087,,96,208,35.0691277,-76.8605638
1409,3020105,302010502,30201050206,15157.16,Pamlico Sound-Ocracoke Inlet,Town of Portsmouth-Portsmouth Island,TAR,Tar-Pamlico,0,91721622.1,49413.60479,0,0,,0,0,35.0696135,-76.0637911
88,3030004,303000407,30300040705,27252.96,Cross Creek-Cape Fear River,Headwaters Locks Creek,CPF,Cape Fear,9877,165105978.3,66240.64746,9238,8510,42.58274719,639,728,35.0698885,-78.8237458
762,6010202,601020201,60102020103,21633.03,Headwaters Little Tennessee River,Coweeta Creek-Little Tennessee River,LTN,Little Tennessee,1945,130969292.4,73616.99063,1841,1426,33.8016013,104,415,35.0709185,-83.4056393
154,3030006,303000604,30300060405,21879.85,Great Coharie Creek,White Oak Swamp-Great Coharie Creek,CPF,Cape Fear,2822,132448914.7,65890.0836,2991,2676,34.18726963,-169,315,35.0712026,-78.3728399
526,3050101,305010114,30501011405,10963.99,Mountain Island Lake-Catawba River,Fites Creek-Catawba River,CAT,Catawba,18837,66693861.27,51361.01778,16068,15089,17.13123013,2769,979,35.0770322,-83.8640669
1117,6020002,602000202,60200020202,14866.74,Tusquitee Creek-Hiwassee River,Fires Creek,HIW,Hiwassee,242,90135614.51,53171.15646,229,160,,13,69,35.0770322,-83.8640669
481,3050101,305010101,30501010104,16435.64,Headwaters Catawba River,Buck Creek,CAT,Catawba,637,101171453.2,54075.45902,686,627,25.68069354,-49,59,35.0776586,-83.6029035
695,6010202,601020203,60102020301,9685.55,Nantahala River,Buck Creek,LTN,Little Tennessee,132,58657551.88,42059.74519,139,101,15.13367548,-7,38,35.0776586,-83.6029035
710,6010103,601010304,60101030401,8731.24,Doe River,Buck Creek,WAT,Watauga,99,3445795.781,20259.50195,157,62,0.865295124,-58,95,35.0776586,-83.6029035
961,3050105,305010515,30501051501,23274.3,Pacolet River,Buck Creek,BRD,Broad,391,18663877.54,19370.85037,431,337,4.800965924,-40,94,35.0776586,-83.6029035
971,3040206,304020607,30402060703,35624.21,Buck Creek-Waccamaw River,Buck Creek,LBR,Lumber,428,76368255.63,44532.31644,572,601,20.20044825,-144,-29,35.0776586,-83.6029035
1363,3020105,302010502,30201050207,29701.35,Pamlico Sound-Ocracoke Inlet,Pamlico Sound-Ocracoke Inlet,TAR,Tar-Pamlico,797,156656390.8,64690.90996,898,656,,-101,242,35.0861054,-76.0333885
41,3030004,303000406,30300040608,13541.99,Rockfish Creek,Bones Creek,CPF,Cape Fear,18482,82025049.69,50792.85893,17921,15940,21.15935357,561,1981,35.0862929,-79.0588518
1113,6020002,602000206,60200020603,10313.67,Nottely River,Nottely River,HIW,Hiwassee,1827,62419078,41530.98309,1524,1169,,303,355,35.0898051,-84.0763001
1128,6020002,602000206,60200020602,17823.9,Nottely River,Rapier Mill Creek-Nottely River,HIW,Hiwassee,1968,69361641.95,42762.06025,1710,1398,,258,312,35.0898051,-84.0763001
1188,6020002,602000206,60200020601,18769.83,Nottely River,Dooley Creek-Nottely River,HIW,Hiwassee,1886,47022559.49,38865.77606,1701,1275,,185,426,35.0898051,-84.0763001
1116,6020002,602000202,60200020201,27433.18,Tusquitee Creek-Hiwassee River,Tusquitee Creek,HIW,Hiwassee,910,166215985.3,64862.25935,817,659,,93,158,35.0902285,-83.7069573
854,3040203,304020302,30402030202,24075.74,Lower Drowning Creek,Aberdeen Creek,LBR,Lumber,21747,146010507.1,65614.06339,18341,13926,37.61834841,3406,4415,35.0937596,-79.4506955
432,3040105,304010507,30401050706,12473.22,Lower Rocky River,Cribs Creek,YAD,Yadkin Pee Dee,894,75581963.84,50575.05699,1005,874,19.48941239,-111,131,35.095263,-80.2460615
541,3050101,305010115,30501011505,15033.58,Lake Wylie-Catawba River,Mill Creek-Lake Wylie,CAT,Catawba,5037,49684014.64,59858.36219,2963,2367,12.80432031,2074,596,35.0953299,-81.0506249
1456,3020204,302020402,30202040201,11857.66,Middle Trent River,Chinquapin Branch,NEU,Neuse,307,71856804.34,38076.25844,290,320,,17,-30,35.1001826,-77.4590772
204,3030007,303000702,30300070204,23435.8,Headwaters Northeast Cape Fear River,Mathews Creek-Northeast Cape Fear River,CPF,Cape Fear,2138,142050001,59939.35443,2782,1959,36.61844565,-644,823,35.1035455,-77.8031288
1422,3020204,302020403,30202040305,14458.74,Lower Trent River,City of New Bern-Trent River,NEU,Neuse,15971,87558256.17,56307.82098,15548,13498,,423,2050,35.108493,-77.0441143
1110,3060101,306010101,30601010103,22943.78,Headwaters Keowee River-Lake Jocassee,Horsepasture River,SAV,Savannah,1679,127612467.9,72354.15524,1137,952,,542,185,35.1109344,-83.0065938
405,3040104,304010402,30401040205,21453.74,Lake Tillery-Pee Dee River,Leak Island-Pee Dee River,YAD,Yadkin Pee Dee,718,130120028.4,83207.77137,855,768,33.52147392,-137,87,35.1157048,-80.0642249
1574,3020301,302030106,30203010601,9466.19,Oyster Creek-Jarrett Bay,Oyster Creek,WOK,White Oak,61,57022917.56,32126.68814,87,73,,-26,14,35.1182265,-75.9754538
802,6010105,601010501,60101050103,16552.84,Headwaters French Broad River,East Fork French Broad River,FBR,French Broad,1277,100103908.2,58830.45294,1264,1150,25.80269223,13,114,35.1194624,-82.7347004
996,3020202,302020206,30202020605,23570.34,Hog Island-Neuse River,Headwaters Bachelor Creek,NEU,Neuse,557,142900746.2,66755.45565,684,768,36.82867177,-127,-84,35.1218276,-77.1830154
1027,3020202,302020206,30202020606,16387.27,Hog Island-Neuse River,Outlet Bachelor Creek,NEU,Neuse,1732,99468085.37,59630.16903,1745,1584,25.60511425,-13,161,35.1218276,-77.1830154
715,6010202,601020202,60102020203,24152.1,Cullasaja River,Lower Cullasaja River,LTN,Little Tennessee,3051,146498371.7,74809.98535,2907,2636,37.73766158,144,271,35.1222439,-83.298714
759,6010202,601020202,60102020201,21905.14,Cullasaja River,Upper Cullasaja River,LTN,Little Tennessee,2275,132667601,69447.68794,1910,1981,34.22678154,365,-71,35.1222439,-83.298714
777,3040203,304020302,30402030204,11213.82,Lower Drowning Creek,Middle Drowning Creek,LBR,Lumber,745,67875136.96,61256.95805,788,1189,17.52159992,-43,-401,35.124204,-79.5489482
793,3040203,304020302,30402030206,34143.81,Lower Drowning Creek,Lower Drowning Creek,LBR,Lumber,2836,206381905.6,76054.67458,2962,2910,53.34969673,-126,52,35.124204,-79.5489482
825,3040203,304020301,30402030104,16785.06,Upper Drowning Creek,Big Branch-Upper Drowning Creek,LBR,Lumber,903,101739242.3,60803.86954,749,548,26.22664904,154,201,35.124204,-79.5489482
856,3040203,304020301,30402030102,23711.82,Upper Drowning Creek,Headwaters Drowning Creek,LBR,Lumber,1660,144180511.1,63623.7452,2079,2318,37.04972585,-419,-239,35.124204,-79.5489482
937,3050103,305010301,30501030106,9727.1,Sugar Creek,McMullen Creek,CAT,Catawba,47167,58994464.77,54253.8327,42747,41754,15.19859364,4420,993,35.1271758,-80.8183838
933,3050103,305010301,30501030107,29874.2,Sugar Creek,McAlpine Creek,CAT,Catawba,150283,174553258.9,101692.8768,137781,121359,44.96519484,12502,16422,35.1288976,-80.7989567
982,3020202,302020202,30202020206,33388.79,Bear Creek-Neuse River,City of Kinston-Neuse River,NEU,Neuse,7726,202990344.6,83386.33115,8243,8263,52.16997986,-517,-20,35.1312747,-76.5038153
1070,3020202,302020206,30202020603,31962.62,Hog Island-Neuse River,Halfmoon Creek-Neuse River,NEU,Neuse,2480,194776915.8,77045.83957,2778,2649,49.94158987,-298,129,35.1312747,-76.5038153
1327,3020201,302020111,30202011103,32166.45,Walnut Creek-Neuse River,Poplar Creek-Neuse River,NEU,Neuse,37525,197873320.1,80005.51666,27264,15245,,10261,12019,35.1312747,-76.5038153
1341,3020201,302020111,30202011104,20052.77,Walnut Creek-Neuse River,Mill Creek-Neuse River,NEU,Neuse,20558,123062966.7,73761.31807,11045,5936,,9513,5109,35.1312747,-76.5038153
1343,3020201,302020111,30202011105,22758.98,Walnut Creek-Neuse River,Buffalo Creek-Neuse River,NEU,Neuse,18282,139410289.1,91922.23105,17457,16379,,825,1078,35.1312747,-76.5038153
1420,3020204,302020405,30202040505,18309.19,Cherry Point-Neuse River,Cherry Point-Neuse River,NEU,Neuse,0,110640332.7,57880.69585,0,0,,0,0,35.1312747,-76.5038153
1442,3020204,302020404,30202040401,14210.71,Upper Broad Creek-Neuse River,City of New Bern-Neuse River,NEU,Neuse,16364,86201272.74,44537.49972,17526,15777,,-1162,1749,35.1312747,-76.5038153
1466,3020204,302020407,30202040705,24928.8,Neuse River,Neuse River,NEU,Neuse,1,150946994.5,61633.04113,0,0,,1,0,35.1312747,-76.5038153
1467,3020201,302020117,30202011702,31947.81,Moccasin Creek-Neuse River,Polecat Branch-Neuse River,NEU,Neuse,2397,195154456.9,95798.95125,2272,2235,,125,37,35.1312747,-76.5038153
1490,3020204,302020407,30202040702,14759.53,Neuse River,South River-Neuse River,NEU,Neuse,3,89274034.88,43967.63695,0,0,,3,0,35.1312747,-76.5038153
1510,3020204,302020404,30202040404,15919.48,Upper Broad Creek-Neuse River,Northwest Creek-Neuse River,NEU,Neuse,6223,96415901.39,54060.34569,6782,6102,,-559,680,35.1312747,-76.5038153
1560,3020204,302020409,30202040904,81670.74,Neuse River-Pamlico Sound,Neuse River-Pamlico Sound,NEU,Neuse,0,494891728.4,116108.4424,0,2,,0,-2,35.1312747,-76.5038153
902,3050103,305010301,30501030108,21434.9,Sugar Creek,Steele Creek,CAT,Catawba,34335,59743342.74,39062.2248,27141,14024,15.39935415,7194,13117,35.1380319,-80.981247
1326,3020105,302010502,30201050205,15756.94,Pamlico Sound-Ocracoke Inlet,Howard Reef-Ocracoke Island,TAR,Tar-Pamlico,0,95646330.11,71769.31752,43,106,,-43,-63,35.1390599,-75.9737874
1174,3060101,306010101,30601010101,15658.3,Headwaters Keowee River-Lake Jocassee,Lake Toxaway-Headwaters Toxaway River,SAV,Savannah,1033,94931146.89,55820.93926,1015,917,,18,98,35.1462588,-82.9571817
118,3030006,303000603,30300060301,30510.34,Little Coharie Creek,Caesar Swamp-Little Coharie Creek,CPF,Cape Fear,3050,185141862.4,71811.80143,2824,2667,47.67240624,226,157,35.148278,-78.5348497
1152,6020002,602000209,60200020901,12411.86,Spring Creek-Hiwassee River,South Shoal Creek,HIW,Hiwassee,535,75204492.5,52986.21208,531,469,,4,62,35.148413,-84.2265848
453,3050102,305010205,30501020504,18142.29,Middle South Fork Catawba River,Sulphur Branch-South Fork Catawba River,CAT,Catawba,12568,110819597.1,64891.86774,12967,13209,28.34732287,-399,-242,35.1495863,-81.0328533
522,3050102,305010206,30501020604,13119.13,Lower South Fork Catawba River,Coley Creek-South Fork Catawba River,CAT,Catawba,5270,79988398.48,59788.47118,5219,4868,20.49863999,51,351,35.1495863,-81.0328533
745,6010202,601020201,60102020105,21853.89,Headwaters Little Tennessee River,Lower Cartoogechaye Creek,LTN,Little Tennessee,4392,132627140.5,62795.35836,3968,3416,34.14670917,424,552,35.1513698,-83.4483131
761,6010202,601020201,60102020104,14903.52,Headwaters Little Tennessee River,Upper Cartoogechaye Creek,LTN,Little Tennessee,1088,90330700.38,40533.84857,1059,860,23.28675676,29,199,35.1513698,-83.4483131
1441,3020204,302020408,30202040803,40249.01,Jones Bay-Bay River,Lower Bay River,NEU,Neuse,655,244383415.9,83169.09599,774,754,,-119,20,35.1566532,-76.664297
1502,3020204,302020408,30202040802,30625.7,Jones Bay-Bay River,Middle Bay River,NEU,Neuse,1449,185735749.4,68186.08238,1817,1943,,-368,-126,35.1566532,-76.664297
1509,3020204,302020408,30202040801,26415.44,Jones Bay-Bay River,Upper Bay River,NEU,Neuse,2463,160220835,56407.02893,2653,2610,,-190,43,35.1566532,-76.664297
1423,3020204,302020404,30202040403,11606.25,Upper Broad Creek-Neuse River,Outlet Upper Broad Creek,NEU,Neuse,2388,70351398.96,48925.95234,2150,1596,,238,554,35.1591653,-76.9383668
1525,3020204,302020404,30202040402,19639.05,Upper Broad Creek-Neuse River,Headwaters Upper Broad Creek,NEU,Neuse,782,119259763.4,48045.67805,816,802,,-34,14,35.1591653,-76.9383668
168,3030007,303000702,30300070202,13531.38,Headwaters Northeast Cape Fear River,Buck Marsh Branch,CPF,Cape Fear,2111,82160026.8,49452.07908,2790,1678,21.14277453,-679,1112,35.1626854,-77.8667414
45,3030004,303000407,30300040701,25586.91,Cross Creek-Cape Fear River,Town of Wade-Cape Fear River,CPF,Cape Fear,2243,155405934.6,59369.18796,2233,2182,39.97953939,10,51,35.1629782,-78.7359296
1197,6020002,602000207,60200020702,22912.63,Hiwassee Lake-Hiwassee River,Grape Creek-Hiwassee Lake,HIW,Hiwassee,3589,138789190,106902.2659,3254,2814,,335,440,35.1642457,-84.254086
861,6010105,601010501,60101050102,18961.63,Headwaters French Broad River,West Fork French Broad River,FBR,French Broad,1337,115092152.3,68324.67946,1513,1359,29.62754208,-176,154,35.1658942,-82.9003612
1183,6020002,602000209,60200020902,19623.62,Spring Creek-Hiwassee River,Apalachia Lake-Hiwassee River,HIW,Hiwassee,507,118010486.5,84232.61364,495,534,,12,-39,35.1681312,-84.2403925
884,3050103,305010301,30501030104,9499.48,Sugar Creek,Irvins Creek,CAT,Catawba,24190,57641811.8,38198.12952,22686,15917,14.8429393,1504,6769,35.1692411,-80.6992511
969,3050103,305010301,30501030102,32647.87,Sugar Creek,Little Sugar Creek,CAT,Catawba,195523,197658885.1,90777.71086,169467,165788,50.84527901,26056,3679,35.1692802,-80.832561
636,6010203,601020301,60102030102,23517.11,Upper Tuckasegee River,Lake Glenville-West Fork Tuckasegee River,LTN,Little Tennessee,1979,142706414.1,62952.02451,1777,1609,36.7454773,202,168,35.1735496,-83.1474783
393,3040105,304010507,30401050704,25727,Lower Rocky River,Rock Hole Creek-Rocky River,YAD,Yadkin Pee Dee,5648,156180738.5,83836.70044,5349,4511,40.19844234,299,838,35.1761133,-80.4168797
161,3030007,303000702,30300070205,15103.27,Headwaters Northeast Cape Fear River,Burn Coat Creek-Northeast Cape Fear River,CPF,Cape Fear,1169,91412307.48,49719.19081,1253,1094,23.59885102,-84,159,35.1763017,-77.7522328
819,6010105,601010501,60101050105,14192.63,Headwaters French Broad River,Cherryfield Creek-French Broad River,FBR,French Broad,3090,86114660.04,66275.8794,3020,2832,22.17598339,70,188,35.1803329,-82.8087905
689,6010202,601020202,60102020202,13206.13,Cullasaja River,Ellijay Creek,LTN,Little Tennessee,1031,80215863.6,42352.28501,786,710,20.63457411,245,76,35.1825838,-83.2706554
700,6010202,601020203,60102020303,25026.8,Nantahala River,Nantahala Lake-Nantahala River,LTN,Little Tennessee,294,151883665.4,60693.33947,262,213,39.10436852,32,49,35.1825851,-83.6654286
175,3030006,303000604,30300060403,11292.94,Great Coharie Creek,Ward Swamp,CPF,Cape Fear,1201,68571696.85,41033.70648,1344,1126,17.64521712,-143,218,35.1836193,-78.3358565
24,3030004,303000403,30300040304,21809.5,Headwaters Little River,James Creek,CPF,Cape Fear,1750,132414271.9,62994.65801,1593,1427,34.07733805,157,166,35.1847117,-79.2929955
35,3030004,303000403,30300040305,21497.53,Headwaters Little River,Upper Crane Creek,CPF,Cape Fear,3834,130986671,66590.98187,3425,3087,33.58989285,409,338,35.1852761,-79.1683567
991,3020202,302020203,30202020302,19854.32,Mosley Creek-Neuse River,Outlet Southwest Creek,NEU,Neuse,2378,120641795.9,55428.28281,2730,2559,31.02237818,-352,171,35.1863107,-77.6414038
1041,3020202,302020203,30202020301,23904.29,Mosley Creek-Neuse River,Headwaters Southwest Creek,NEU,Neuse,3030,145044158.6,59063.91966,3131,2739,37.35046297,-101,392,35.1863107,-77.6414038
1536,3020302,302030202,30203020205,29719.05,New River,Outlet Southwest Creek,WOK,White Oak,11818,178362322.2,78413.27294,11113,9422,,705,1691,35.1863107,-77.6414038
1599,3020302,302030202,30203020204,17029.16,New River,Headwaters Southwest Creek,WOK,White Oak,4740,102411614.8,47156.25293,4268,3639,,472,629,35.1863107,-77.6414038
824,6010105,601010501,60101050101,24193.43,Headwaters French Broad River,North Fork French Broad River,FBR,French Broad,790,147068175.1,64877.36889,909,747,37.80223231,-119,162,35.189506,-82.8519636
1330,3020105,302010503,30201050306,12828.03,Pamlico Sound-Hatteras Inlet,Pamlico Sound-Hatteras Inlet,TAR,Tar-Pamlico,99,65030760.48,45684.15684,67,90,,32,-23,35.1909311,-75.7574989
999,3020202,302020206,30202020607,8214.57,Hog Island-Neuse River,Hog Island-Neuse River,NEU,Neuse,3306,49864852.52,46573.35577,2990,2122,12.83526862,316,868,35.1934923,-79.2964179
1146,6020002,602000209,60200020903,12249.93,Spring Creek-Hiwassee River,Shuler Creek,HIW,Hiwassee,73,74415893.38,43667.27455,64,72,,9,-8,35.1948714,-84.2726458
501,3040105,304010503,30401050306,15766.72,Middle Rocky River,Clear Creek,YAD,Yadkin Pee Dee,10837,95792594.1,55339.83164,8267,6902,24.63549912,2570,1365,35.2020886,-80.6000676
842,6010105,601010503,60101050302,28811.27,Mud Creek,Clear Creek,FBR,French Broad,16345,175854462.4,80137.30536,14001,10379,45.01760554,2344,3622,35.2020886,-80.6000676
343,3040105,304010507,30401050705,18535.17,Lower Rocky River,Gilberts Creek-Rocky River,YAD,Yadkin Pee Dee,1958,112531826.5,61614.53812,2047,1879,28.96120945,-89,168,35.2035846,-80.2955418
763,6010105,601010501,60101050104,9258.1,Headwaters French Broad River,Catheys Creek,FBR,French Broad,849,56277755.84,40884.12153,901,836,14.4657782,-52,65,35.2036559,-82.783247
946,3050105,305010504,30501050403,28747.37,Second Broad River,Catheys Creek,BRD,Broad,7577,175640031,83725.84706,7752,7067,44.91776574,-175,685,35.2036559,-82.783247
1168,6020002,602000204,60200020402,26034.11,Valley River,Upper Valley River,HIW,Hiwassee,3639,158146930.3,65021.57119,3834,3832,,-195,2,35.2061871,-83.8253932
915,3050105,305010506,30501050601,20844.69,Upper First Broad River,Headwaters First Broad River,BRD,Broad,536,127716788.2,62332.2937,479,432,32.56983003,57,47,35.2076278,-81.6062443
966,3050105,305010506,30501050602,20109.08,Upper First Broad River,Brier Creek-First Broad River,BRD,Broad,810,123152620.8,54948.8255,808,773,31.42043689,2,35,35.2076278,-81.6062443
1005,3050105,305010507,30501050703,16433.72,Lower First Broad River,Hickory Creek-First Broad River,BRD,Broad,20793,99997716.84,48540.87744,19827,20570,25.67768834,966,-743,35.2076278,-81.6062443
1025,3050105,305010507,30501050705,9667.19,Lower First Broad River,Outlet First Broad River,BRD,Broad,3048,58749506.82,46630.63821,3099,3037,15.10497716,-51,62,35.2076278,-81.6062443
1516,3020201,302020114,30202011402,21360.65,Falling Creek,Thunder Swamp-Thoroughfare Swamp,NEU,Neuse,3326,129839937.4,71881.7273,3593,3480,,-267,113,35.2090107,-78.1079578
1106,6020002,602000204,60200020403,13523.47,Valley River,Middle Valley River,HIW,Hiwassee,1453,82064006.26,50628.30829,1415,1282,,38,133,35.2091006,-83.788941
1142,6020002,602000204,60200020404,8848.37,Valley River,Lower Valley River,HIW,Hiwassee,2001,53646140.02,39557.99773,2064,1839,,-63,225,35.2091006,-83.788941
1178,6020002,602000204,60200020401,26541.95,Valley River,Headwaters Valley River,HIW,Hiwassee,2293,161235331.3,66735.09783,2399,2258,,-106,141,35.2091006,-83.788941
130,3030006,303000604,30300060401,11611.43,Great Coharie Creek,House Pond-Sevenmile Swamp,CPF,Cape Fear,1080,70563490.69,51617.26077,1040,953,18.14285403,40,87,35.209243,-78.4297086
1171,6020002,602000207,60200020701,26091.63,Hiwassee Lake-Hiwassee River,Hanging Dog Creek,HIW,Hiwassee,1253,158412171.2,64766.03374,1292,1152,,-39,140,35.2116161,-83.992612
284,3040101,304010104,30401010407,9226.07,Roaring River-Yadkin River,Briar Creek-Yadkin River,YAD,Yadkin Pee Dee,975,57418511.36,43608.74649,1087,1119,14.41572671,-112,-32,35.2121169,-80.7907103
775,3040203,304020309,30402030904,18772.31,Lower Big Swamp,Brier Creek-Big Swamp,LBR,Lumber,499,112077199.8,61613.90042,567,564,29.33174221,-68,3,35.2121169,-80.7907103
887,3050105,305010512,30501051201,28603.17,North Pacolet River,Upper North Pacolet River,BRD,Broad,6336,147959949,76428.6146,6483,6310,38.03788162,-147,173,35.2129157,-82.2772597
899,3050105,305010512,30501051202,20236.4,North Pacolet River,Middle North Pacolet River,BRD,Broad,1578,62785137.95,40780.45394,1679,1584,16.14522248,-101,95,35.2129157,-82.2772597
970,3050105,305010512,30501051203,26325.84,North Pacolet River,Lower North Pacolet River,BRD,Broad,1141,54151053.29,39079.97114,1176,1045,13.92349669,-35,131,35.2129157,-82.2772597
687,6010202,601020204,60102020401,27883.38,Alarka Creek-Little Tennessee River,Lake Emory-Little Tennessee River,LTN,Little Tennessee,11015,169440608.2,66975.17011,10155,9091,43.56777424,860,1064,35.212949,-83.3699235
1064,3020202,302020206,30202020604,21063.06,Hog Island-Neuse River,Pinetree Creek-Neuse River,NEU,Neuse,2349,128081740.8,58217.80408,2542,1948,32.91103006,-193,594,35.2130985,-77.1227693
527,3050101,305010115,30501011502,20678.93,Lake Wylie-Catawba River,Catawba Creek,CAT,Catawba,44831,123066961.1,62343.48842,38840,34771,31.64955868,5991,4069,35.2159722,-81.130611
1429,3020204,302020408,30202040804,13801.48,Jones Bay-Bay River,Jones Bay,NEU,Neuse,74,83874408.86,46324.47617,91,142,,-17,-51,35.2175708,-76.5199195
387,3040104,304010404,30401040401,20719.6,Little River,Cheek Creek,YAD,Yadkin Pee Dee,561,125919767.2,73363.0159,655,549,32.37436843,-94,106,35.2184565,-79.8856824
994,3050105,305010508,30501050804,23810.34,Buffalo Creek,Beason Creek-Buffalo Creek,BRD,Broad,13065,144729684.1,62420.2352,12902,12422,37.20365741,163,480,35.2205228,-81.4220357
1718,3010103,301010308,30101030807,31400.46,Lower Smith River,Fall Creek-Smith River,ROA,Roanoke,7213,42247363.43,32944.44474,7661,7463,,-448,198,35.222337,-82.6959581
787,6010105,601010502,60101050203,14890.06,Davidson River-French Broad River,Williamson Creek-French Broad River,FBR,French Broad,11289,90530280.77,48435.83162,11355,10097,23.26571779,-66,1258,35.2228215,-82.6936393
1080,3050105,305010501,30501050101,26993.03,Upper Green River,Lake Summit-Green River,BRD,Broad,3087,163898631.4,77679.3182,3148,2685,,-61,463,35.2262092,-82.4150054
723,6010202,601020203,60102020304,28363.51,Nantahala River,Whiteoak Creek-Nantahala River,LTN,Little Tennessee,539,172434525.4,72359.59818,618,661,44.31798642,-79,-43,35.2270518,-83.6075601
600,6010203,601020301,60102030103,13715,Upper Tuckasegee River,Trout Creek-West Fork Tuckasegee River,LTN,Little Tennessee,606,83349353.28,45709.40143,605,466,21.42969287,1,139,35.233102,-83.1421119
894,3050109,305010901,30501090101,16267.64,North Saluda River,Upper North Saluda River,BRD,Broad,1,529653.3594,41087.66726,3,1,0.136265602,-2,2,35.2362264,-82.3492839
935,3050109,305010902,30501090203,31502.38,South Saluda River,Middle Saluda River,BRD,Broad,10,1508282.652,62518.34735,9,4,0.388420907,1,5,35.2362264,-82.3492839
450,3050101,305010115,30501011501,26524.68,Lake Wylie-Catawba River,Upper Crowders Creek,CAT,Catawba,28370,161265091.3,67196.06556,27789,28645,41.44481809,581,-856,35.2370723,-81.2683859
516,3050101,305010115,30501011504,36665.7,Lake Wylie-Catawba River,Lower Crowders Creek,CAT,Catawba,10742,118151743.9,76552.08748,10565,10362,30.40300329,177,203,35.2370723,-81.2683859
32,3030004,303000404,30300040408,19677.62,Outlet Little River,Town of Twin Lakes-Little River,CPF,Cape Fear,10214,119584212,68589.60217,10014,8471,30.74628348,200,1543,35.2387268,-82.6290119
39,3030004,303000404,30300040409,17744.8,Outlet Little River,Stewarts Creek-Little River,CPF,Cape Fear,1790,108007976.8,51490.2613,1794,1424,27.72626678,-4,370,35.2387268,-82.6290119
51,3030004,303000403,30300040302,24796.8,Headwaters Little River,Thagards Lake-Little River,CPF,Cape Fear,7574,150903085.9,80831.08465,5578,4756,38.74500367,1996,822,35.2387268,-82.6290119
80,3030004,303000404,30300040405,13523.48,Outlet Little River,Tank Creek-Little River,CPF,Cape Fear,17878,82078190.69,49696.00531,17662,24495,21.13044538,216,-6833,35.2387268,-82.6290119
96,3030004,303000404,30300040403,12657,Outlet Little River,Hector Creek-Little River,CPF,Cape Fear,106,76855056.48,42554.1792,51,431,19.77656389,55,-380,35.2387268,-82.6290119
106,3030004,303000404,30300040402,11019.24,Outlet Little River,Deep Creek-Little River,CPF,Cape Fear,239,66855719.64,43993.76136,330,271,17.21757064,-91,59,35.2387268,-82.6290119
352,3040104,304010403,30401040304,20548.1,Eury Dam-Little River,Dicks Creek-Little River,YAD,Yadkin Pee Dee,1983,125539828.7,84129.81519,2079,1852,32.10640756,-96,227,35.2387268,-82.6290119
408,3040104,304010403,30401040306,31951.92,Eury Dam-Little River,Eury Dam-Little River,YAD,Yadkin Pee Dee,3298,194609478.6,79360.87076,3539,3468,49.92487707,-241,71,35.2387268,-82.6290119
419,3040104,304010404,30401040402,27580.87,Little River,Big Town Creek-Little River,YAD,Yadkin Pee Dee,540,167642668,76358.7502,550,601,43.09511228,-10,-51,35.2387268,-82.6290119
438,3040104,304010403,30401040301,29255.76,Eury Dam-Little River,Headwaters Little River,YAD,Yadkin Pee Dee,7065,179410609.9,81996.81133,6901,6445,45.71211959,164,456,35.2387268,-82.6290119
442,3040104,304010404,30401040404,20080.29,Little River,Little River,YAD,Yadkin Pee Dee,980,121848474.5,79846.50563,1024,1318,31.37545284,-44,-294,35.2387268,-82.6290119
1450,3020201,302020115,30202011505,17564.01,Upper Little River,Long Branch-Little River,NEU,Neuse,3149,107865959.4,66231.28246,2881,2322,,268,559,35.2387268,-82.6290119
1477,3020201,302020116,30202011603,12730.8,Lower Little River,Dennis Branch-Little River,NEU,Neuse,3693,77842141.99,48591.88995,3669,2819,,24,850,35.2387268,-82.6290119
1493,3020201,302020102,30202010203,21043.55,Little River,Mountain Creek-Little River,NEU,Neuse,9461,130833179.3,79819.45448,8848,8168,,613,680,35.2387268,-82.6290119
1501,3020201,302020115,30202011503,39366.01,Upper Little River,Cattail Creek-Little River,NEU,Neuse,16911,242527758.6,100144.6611,14373,11967,,2538,2406,35.2387268,-82.6290119
1520,3020201,302020116,30202011602,30661.48,Lower Little River,Little Creek-Little River,NEU,Neuse,6890,187843005.8,77775.73453,6374,5703,,516,671,35.2387268,-82.6290119
1528,3020201,302020115,30202011501,27575.66,Upper Little River,Headwaters Little River,NEU,Neuse,8235,170567638,74401.12265,7602,5747,,633,1855,35.2387268,-82.6290119
1651,5050001,505000104,50500010404,14770.82,Little River-New River,Pine Swamp Creek-Little River,NEW,New,856,92591577.43,46568.58513,895,883,,-39,12,35.2387268,-82.6290119
1523,3020204,302020408,30202040805,11841.68,Jones Bay-Bay River,Middle Bay,NEU,Neuse,7,72002016.39,44449.31866,13,18,,-6,-5,35.2390251,-76.5069107
65,3030004,303000403,30300040301,17645.09,Headwaters Little River,Nicks Creek,CPF,Cape Fear,10658,107261151.9,56795.72157,9029,6698,27.57044592,1629,2331,35.2433304,-79.4731695
348,3040104,304010402,30401040203,34640.12,Lake Tillery-Pee Dee River,Pee Dee River-Lake Tillery,YAD,Yadkin Pee Dee,6311,210793463.3,82007.09015,5784,5738,54.12519035,527,46,35.2440558,-80.0953942
1678,5050001,505000104,50500010407,18594.04,Little River-New River,Crab Creek-Little River,NEW,New,818,71217111.76,48855.14636,829,862,,-11,-33,35.2442534,-82.5612177
1356,3020105,302010503,30201050307,9896.46,Pamlico Sound-Hatteras Inlet,Oceanside Seashore-Cape Hatteras,TAR,Tar-Pamlico,7,15620814.8,53544.87014,0,28,,7,-28,35.2443439,-75.5975296
565,6010203,601020301,60102030104,26689.15,Upper Tuckasegee River,Cedar Cliff Lake-Tuckasegee River,LTN,Little Tennessee,1091,162258282.3,77393.62008,1095,1045,41.70180249,-4,50,35.2460433,-83.0878071
895,3050103,305010301,30501030101,19886.99,Sugar Creek,Irwin Creek,CAT,Catawba,83364,120964093.8,54762.05706,66328,60229,31.07343023,17036,6099,35.2477373,-80.8626691
1145,3010205,301020515,30102051505,47528.51,Croatan Sound,Hatteras Island-Pamlico Sound,PAS,Pasquotank,686,291652095.1,94871.77395,578,547,,108,31,35.24804,-75.5393155
1260,3010205,301020516,30102051601,19740.13,Hatteras Island,Town of Avon-Hatteras Island,PAS,Pasquotank,8,8115069.875,90099.35711,5,21,,3,-16,35.24804,-75.5393155
1290,3010205,301020517,30102051708,10685.98,Sand Ridge-Bodie Island,Town of Waves-Hatteras Island,PAS,Pasquotank,1,2288227.934,60812.12146,39,19,,-38,20,35.24804,-75.5393155
1383,3020105,302010503,30201050304,31925.85,Pamlico Sound-Hatteras Inlet,Town of Avon-Hatteras Island,TAR,Tar-Pamlico,832,194734112.1,99341.16231,777,777,,55,0,35.24804,-75.5393155
1399,3020105,302010503,30201050305,30284.99,Pamlico Sound-Hatteras Inlet,Sandy Bay-Hatteras Island,TAR,Tar-Pamlico,2637,184252269.8,67119.22884,2853,2524,,-216,329,35.24804,-75.5393155
697,6010202,601020204,60102020403,17080.37,Alarka Creek-Little Tennessee River,Burningtown Creek,LTN,Little Tennessee,654,103814338.8,50084.51712,607,705,26.68807993,47,-98,35.2485696,-83.5123332
1368,3020105,302010502,30201050203,67352,Pamlico Sound-Ocracoke Inlet,Bluff Shoal-Middle Ground,TAR,Tar-Pamlico,0,409718752.7,125293.3413,0,0,,0,0,35.249336,-76.094351
34,3030003,303000305,30300030509,21305.06,Rocky River,Rocky River,CPF,Cape Fear,1479,130887211.1,95882.46764,1573,1268,33.28915944,-94,305,35.2501409,-80.3764606
385,3040105,304010507,30401050708,12719.09,Lower Rocky River,Camp Branch-Rocky River,YAD,Yadkin Pee Dee,1152,77227853.18,47632.83381,1328,1430,19.87357826,-176,-102,35.2501409,-80.3764606
424,3040105,304010501,30401050102,30931.76,Upper Rocky River,Headwaters Rocky River,YAD,Yadkin Pee Dee,53267,189259365.1,82959.83759,34813,18687,48.33087223,18454,16126,35.2501409,-80.3764606
478,3050102,305010206,30501020605,25312.63,Lower South Fork Catawba River,Duharts Creek-South Fork Catawba River,CAT,Catawba,39548,153927737.1,75778.4583,33990,29510,39.55098181,5558,4480,35.2526723,-81.1106359
812,6010105,601010502,60101050202,30181.44,Davidson River-French Broad River,Davidson River,FBR,French Broad,993,183784564.2,73078.38546,1128,1120,47.15849236,-135,8,35.2534477,-82.6840127
110,3030003,303000302,30300030205,24194.7,Upper Deep River,Lower Richland Creek,CPF,Cape Fear,3237,148527959.8,98487.13781,3100,2863,37.80421351,137,237,35.2546419,-80.0493005
505,6010106,601010602,60101060202,20882.07,Richland Creek-Pigeon River,Lower Richland Creek,FBR,French Broad,15864,127785467.4,63127.40109,15120,14111,32.62823438,744,1009,35.2546419,-80.0493005
1503,3020201,302020114,30202011401,10325.74,Falling Creek,Brooks Swamp,NEU,Neuse,2505,62787958.53,39299.84123,2672,2346,,-167,326,35.2560067,-78.0730343
1052,3020202,302020201,30202020104,7884.31,Walnut Creek-Neuse River,Sleepy Creek,NEU,Neuse,1325,47954016.52,31170.97209,1332,1308,12.31923109,-7,24,35.2584967,-77.9705419
1090,3020202,302020201,30202020105,13757.44,Walnut Creek-Neuse River,Sleepy Creek-Neuse River,NEU,Neuse,2744,83721985.11,54405.50073,2600,2194,,144,406,35.2584967,-77.9705419
