X,Y,Date_Orig,Date_Issue,Date_Expir,FID,Permit_ID,NCS_Number,Firm_Name,Contact_FN,Contact_LN,Phone,Address,City,State,Zip,County,Owns,Domestic_S,Grease,Portable_T,Other_Wast,Capacity,Other_Wa_1,Capacity_D,Latitude,Longitude
-8828997.057,4329278.345,2013/09/27 00:00:00+00,2017/03/09 00:00:00+00,2019/03/01 00:00:00+00,1,SDTF-01-04,NCS-00726,Myers Septic Tank Company,Jerry,Byrd,(336)421-8700,P.O. Box 999,Haw River,NC,27258,Alamance,N,N,N,Y,N,"1,000.00",1,0,36.21,-79.31
-9031608.549,4284464.201,1996/02/22 00:00:00+00,2014/02/27 00:00:00+00,2019/02/27 00:00:00+00,2,SDTF-02-04,NCS-00104,Rowan Septic Tank & Ditching Co Inc,David R,Mecimore,(828) 632-4608,128 Taylorsville Mfg. Rd.,Taylorsville,NC,28681,Alexander,N,Y,Y,N,N,"5,000.00",5,0,35.88,-81.13
-9034645.345,4291822.765,1999/11/24 00:00:00+00,2015/06/04 00:00:00+00,2020/03/01 00:00:00+00,3,SDTF-02-05,NCS-00320,A Sani-Can,Warren,Miller,(828) 632-0788,80 W Main Ave,Taylorsville,NC,28681,Alexander,N,Y,Y,Y,N,"15,000.00",15,0,35.94,-81.16
-9054102.879,4274257.862,2000/09/13 00:00:00+00,2015/07/30 00:00:00+00,2020/03/24 00:00:00+00,4,SDTF-02-06,NCS-00927,A Sani-Can,Mark,Hull,(828) 495-8833,5803 Icard Ridge Road,Hickory,NC,28601,Alexander,N,Y,N,Y,N,325,0,0,35.81,-81.33
-9009049.654,4377466.2,2010/08/31 00:00:00+00,2017/04/04 00:00:00+00,2022/04/04 00:00:00+00,5,SDTF-03-04,NCS-01188,T-N-T Septic Service,Aaron,Robinson,(276) 236-6962,3572 Peppers Ferry Road,Wytheville,VA,24382,Alleghany,N,Y,Y,Y,N,"30,000.00",30,0,36.56,-80.93
-8914816.592,4168706.499,2002/06/10 00:00:00+00,2013/06/25 00:00:00+00,2018/06/25 00:00:00+00,6,SDTF-04-07,NCS-00874,Robinson's Septic Tank Cleaning,Robert,Vogler,(704) 694-3701,656 Little Duncan Road,Wadesboro,NC,28170,Anson,Y,N,Y,N,N,"17,000.00",17,0,35.04,-80.08
-8903577.777,4151046.376,2011/05/26 00:00:00+00,2017/12/20 00:00:00+00,2022/12/20 00:00:00+00,7,SDTF-04-08,NCS-01094,Smith Pumping Service,Ronnie,Oaks,(704) 848-8801,2323 Diggs Road,Wadesboro,NC,28170,Anson,Y,Y,Y,N,Y,"60,000.00",0,0,34.91,-79.98
-8580212.467,4252025.69,2000/09/06 00:00:00+00,2016/04/11 00:00:00+00,2021/04/11 00:00:00+00,8,SDTF-07-06,NCS-00826,Ray's Septic Service,Scott,Williamson,(252) 944-7737,1774 Wharton Station Rd.,Washington,NC,27889,Beaufort,Y,Y,Y,N,N,"44,000.00",44,0,35.65,-77.08
-8556783.054,4221731.98,2008/09/10 00:00:00+00,2015/03/09 00:00:00+00,2016/03/09 00:00:00+00,9,SDTF-07-08,NCS-01078,Garner Construction Company,Kenneth,Brabble,(252) 904-4584,212 Eagle Nest Trail #68,Blounts Creek,NC,27814,Beaufort,Y,N,N,Y,N,"1,000.00",1,0,35.42,-76.87
-8771972.535,4104715.567,1999/10/19 00:00:00+00,2013/05/23 00:00:00+00,2018/05/22 00:00:00+00,10,SDTF-09-07,NCS-00153,Sprinkle Inc.,Furnie V,Singletary,(910) 648-2228,PO Box 782,Bladenboro,NC,28320,Bladen,Y,Y,Y,Y,N,"50,000.00",50,0,34.56,-78.80
-8743937.834,4035873.828,1996/02/22 00:00:00+00,2014/11/04 00:00:00+00,2019/04/21 00:00:00+00,11,SDTF-10-12,NCS-00034,Don Jordan's Septic Tank Cleaning & Portable Toilet Rental,G Melton,Smith,(910) 231-5280,3785 Ash Little River Rd NW,Ash,NC,28420,Brunswick,Y,Y,N,N,N,"14,000.00",14,0,34.05,-78.55
-8707047.668,4029661.422,1996/06/25 00:00:00+00,2016/05/04 00:00:00+00,2017/05/04 00:00:00+00,12,SDTF-10-13,NCS-00033,Creech's Septic & Grease Trap Cleaning,Ryan,Hewett,(910) 842-6606,2166 Big Neck Road NW,Ash,NC,28420,Brunswick,N,Y,N,N,N,"10,000.00",10,0,34.01,-78.22
-8698706.499,4030864.685,1997/06/26 00:00:00+00,2015/12/16 00:00:00+00,2020/12/16 00:00:00+00,13,SDTF-10-18,NCS-00298,Creech's Septic & Grease Trap Cleaning,Mary,Cook,(910) 253-4689,PO Box 8,Bolivia,NC,28422,Brunswick,N,Y,Y,Y,N,"27,000.00",27,0,34.02,-78.14
-8710277.047,4018412.485,2003/08/22 00:00:00+00,2011/09/01 00:00:00+00,2016/09/01 00:00:00+00,14,SDTF-10-19,NCS-01002,Pearce Backhoe & Septic Tank Svc.,Bill,Jordan,(910) 256-2021,1630 Military Cutoff Rd,Wilmington,NC,28403,Brunswick,Y,N,N,Y,N,"1,000.00",1,0,33.92,-78.25
-9192154.632,4243034.867,1996/03/08 00:00:00+00,2016/05/24 00:00:00+00,2021/05/24 00:00:00+00,15,SDTF-11-01,NCS-00096,Eastside Septic Cleaning Service,Gary,Blankenship,(828) 254-1920,20 Brownwood Ave,Asheville,NC,28806,Buncombe,Y,Y,Y,N,N,"23,800.00",0,0,35.58,-82.57
-9071489.87,4251109.291,1996/09/18 00:00:00+00,2018/03/08 00:00:00+00,2023/03/08 00:00:00+00,16,SDTF-12-03,NCS-00928,Hardee's Septic Tank Service,Regan,Hudson,(828) 874-5147,7204 Old Laurel Rd,Vale,NC,28168,Burke,Y,Y,Y,Y,N,"120,000.00",0,0,35.64,-81.49
-9089070.557,4259733.881,2006/05/08 00:00:00+00,2016/06/29 00:00:00+00,2021/03/01 00:00:00+00,17,SDTF-12-06,NCS-00143,TNT Services Inc.,Ryan,Mull,(828) 437-0959,2416 Mt. Home Church Road,Morganton,NC,28655,Burke,N,Y,N,N,N,"10,000.00",10,0,35.70,-81.65
-9066009.612,4259850.402,2016/02/16 00:00:00+00,2017/05/18 00:00:00+00,2019/05/18 00:00:00+00,18,SDTF-12-07,NCS-00924,Stallings Septic Service,Dennis,Newton,(828) 397-5412,3989 Old Brittain Road,Hickory,NC,28602,Burke,Y,Y,N,N,N,"2,300.00",0,0,35.70,-81.44
-9112905.173,4264168.038,2017/06/30 00:00:00+00,2017/06/30 00:00:00+00,2018/06/30 00:00:00+00,19,SDTF-12-08,NCS-01403,Able Septic Tank Service,Chris,Daly,(863) 287-5410,P.O. Box 2310,Lake Wales,FL,33859,Burke,N,N,N,Y,N,"1,500.00",0,0,35.73,-81.86
-9080393.203,4273025.289,2008/07/02 00:00:00+00,2014/08/28 00:00:00+00,2019/08/28 00:00:00+00,20,SDTF-14-01,NCS-00240,A Pauls Septic Tank Service,Marshall & Darlene,Williams,(828) 728-7116,P.O. Box 546,Hudson,NC,28638,Caldwell,Y,Y,Y,N,N,"32,000.00",32,0,35.80,-81.57
-9058110.38,4288655.526,2010/12/22 00:00:00+00,2017/05/18 00:00:00+00,2022/05/18 00:00:00+00,21,SDTF-14-02,NCS-01142,Taylorsville Precast Molds Inc.,Barry,Sparks,(828)758-0330,5388 Fields Place,Lenoir,NC,28645,Caldwell,Y,N,Y,N,N,"13,000.00",13,0,35.91,-81.37
-8479546.251,4352092.609,2003/07/25 00:00:00+00,2013/11/26 00:00:00+00,2018/07/16 00:00:00+00,22,SDTF-15-02,NCS-00914,Brinson & Miller Inc.,Joseph,Russell,(252) 202-9969,134 Belcross Rd,Camden,NC,27921,Camden,N,Y,Y,Y,Y,"64,250.00",0,0,36.37,-76.17
-8565729.801,4135059.586,1996/02/22 00:00:00+00,2015/10/15 00:00:00+00,2020/12/20 00:00:00+00,23,SDTF-16-05,NCS-00207,Bennie A Moore Septic Tank Service Inc,Donald,Bryant,(252) 726-6761,123 Pete Rd,Newport,NC,28570,Carteret,N,Y,Y,N,N,"25,000.00",25,0,34.79,-76.95
-8576250.606,4123158.275,1997/07/11 00:00:00+00,2015/12/30 00:00:00+00,2020/12/30 00:00:00+00,24,SDTF-16-06,NCS-00645,Bennie A Moore Septic Tank Service Inc,Richard G,Taylor,(252) 393-6426,325 Barrington Ridge,Newport,NC,28570,Carteret,Y,Y,N,N,N,"12,000.00",12,0,34.70,-77.04
-8536757.79,4125992.579,2001/09/25 00:00:00+00,2017/08/30 00:00:00+00,2022/08/30 00:00:00+00,25,SDTF-16-09,NCS-00933,Valley Proteins Inc.,Mike,Marcheselli,(252) 247-7580,156 Radio Island Rd.,Beaufort,NC,28516,Carteret,Y,N,N,Y,N,"2,000.00",2,0,34.72,-76.69
-8537374.5,4143670.02,2005/12/16 00:00:00+00,2013/06/27 00:00:00+00,2018/06/27 00:00:00+00,26,SDTF-16-10,NCS-01012,Mitchell's Septic Tank Cleaning Service Inc.,William K.,Humble  Jr.,(252) 728-4126,729 Sea Gate Dr,Newport,NC,28570,Carteret,N,N,N,Y,N,"1,000.00",1,0,34.85,-76.69
-8563288.565,4137795.222,2008/07/15 00:00:00+00,2012/01/13 00:00:00+00,2017/01/10 00:00:00+00,27,SDTF-16-11,NCS-00049,Mitchell's Septic Tank Cleaning Service Inc.,Morgan and Keith,Garner,(252) 223-4019,5970 Hwy 70,Newport,NC,28570,Carteret,N,Y,Y,N,N,"7,800.00",0,0,34.81,-76.93
-9017173.751,4242178.07,2004/08/16 00:00:00+00,2015/12/16 00:00:00+00,2020/05/20 00:00:00+00,28,SDTF-18-03,NCS-00980,Waste Management of Wilmington,Patt,Dawson,(704) 483-0077,7515 Stonewall Street,Sherrills Ford,NC,28673,Catawba,N,N,N,Y,N,"1,025.00",1,25,35.57,-81.00
-9031664.209,4269969.164,2009/07/08 00:00:00+00,2015/07/30 00:00:00+00,2020/07/30 00:00:00+00,29,SDTF-18-04,NCS-01048,Waste Management of Wilmington,James,Jana,(828) 459-3341,5384 Bolick Rd,Claremont,NC,28610,Catawba,Y,N,N,Y,N,"4,650.00",0,0,35.78,-81.13
-9041370.155,4269827.838,2010/12/22 00:00:00+00,2014/04/16 00:00:00+00,2019/04/16 00:00:00+00,30,SDTF-18-05,NCS-00291,R Mull Septic Tank Service,Kelly,Isenhour,(828)256-2926,1347 Houston Mill Road,Conover,NC,28613,Catawba,N,Y,Y,N,N,"10,000.00",10,0,35.78,-81.22
-8795723.661,4250017.657,1996/06/25 00:00:00+00,2015/03/11 00:00:00+00,2020/01/15 00:00:00+00,31,SDTF-19-02,NCS-00636,Lentz Septic Tank Service,Damon W.,Woodall,(919) 577-1995,51 Buttonwood Court,Fuquay Varina,NC,27526,Chatham,N,N,Y,N,N,"86,000.00",86,0,35.63,-79.01
-9369331.847,4184551.124,2003/08/06 00:00:00+00,2017/12/20 00:00:00+00,2022/12/20 00:00:00+00,32,SDTF-20-01,NCS-00955,Singletary Septic Tank Service,Mary,Maul,(828) 644-5451,200 Dean Aldrich Road,Murphy,NC,28906,Cherokee,Y,N,N,Y,N,"2,000.00",2,0,35.15,-84.17
-9082832.213,4216574.848,1997/10/07 00:00:00+00,2018/03/08 00:00:00+00,2022/10/01 00:00:00+00,33,SDTF-23-06,NCS-00576,Thomas Septic Tank Service,Leonard,McSwain,(704) 482-1380,3020 Ramseur Church Rd,Shelby,NC,28150,Cleveland,N,Y,N,N,N,"10,000.00",10,0,35.39,-81.59
-9083151.7,4200973.381,1996/09/18 00:00:00+00,2017/01/24 00:00:00+00,2021/11/14 00:00:00+00,34,SDTF-23-10,NCS-00574,Rouse Septic Tank Service,Kati,Wesson,(704) 487-9997,707 Poplar Springs Ch Rd,Shelby,NC,28152,Cleveland,N,Y,Y,Y,N,"43,000.00",43,0,35.27,-81.60
-9065604.409,4196812.713,1996/09/26 00:00:00+00,2015/12/16 00:00:00+00,2020/12/10 00:00:00+00,35,SDTF-23-20,NCS-00608,Hoffman Septic Tank Pumping,Trent,Rhea,(704) 739-5849,5030 Harmon Rd,Kings Mountain,NC,28086,Cleveland,Y,Y,N,N,N,"16,000.00",16,0,35.24,-81.44
-8758576.347,4043257.9,2006/05/08 00:00:00+00,2012/10/31 00:00:00+00,2017/05/18 00:00:00+00,36,SDTF-24-06,NCS-00735,Hoffman Septic Tank Pumping,James,Faulk,(910) 653-3672,13603 Swamp Fox Hwy East,Tabor City,NC,28463,Columbus,N,Y,Y,Y,N,"24,000.00",24,0,34.11,-78.68
-8761928.177,4061236.805,2008/04/28 00:00:00+00,2017/07/14 00:00:00+00,2020/05/04 00:00:00+00,37,SDTF-24-07,NCS-00984,B & B Concrete Products Inc,Ben,Harrelson,(910) 642-7431,5454 James B White Hwy S,Whiteville,NC,28472,Columbus,N,Y,Y,Y,N,"8,000.00",8,0,34.24,-78.71
-8766726.047,4048486.366,2017/08/08 00:00:00+00,2017/08/08 00:00:00+00,2018/08/08 00:00:00+00,38,SDTF-24-09,NCS-00282,Bates Septic Tank & Concrete Products Co.,John (Jack),Turner,(910) 653-4810,714 Mollie Ironhill Rd.,Clarendon,NC,28432,Columbus,N,Y,Y,N,N,"14,000.00",14,0,34.15,-78.75
-8589531.021,4186121.037,2003/09/15 00:00:00+00,2016/09/30 00:00:00+00,2021/09/30 00:00:00+00,39,SDTF-25-08,NCS-00912,Williams Septic Tank Service,John W,Dunham,(252) 633-5334,2115 Hwy 55 West,New Bern,NC,28562,Craven,Y,Y,Y,Y,Y,"145,000.00",0,0,35.16,-77.16
-8600153.127,4204013.077,2006/05/22 00:00:00+00,2012/02/20 00:00:00+00,2017/02/07 00:00:00+00,40,SDTF-25-10,NCS-01000,C. S. Hines Inc.,Michael,Braxton,(252) 244-0713,9900 US Hwy 17 North,Vanceboro,NC,28586,Craven,N,Y,Y,Y,N,"12,000.00",12,0,35.29,-77.26
-8778942.248,4168014.51,2002/06/10 00:00:00+00,2013/06/25 00:00:00+00,2018/06/25 00:00:00+00,41,SDTF-26-02,NCS-00875,Matthews Septic Tank Service,Robert,Vogler,(910) 483-0473,1309 Industrial Drive,Fayetteville,NC,22604,Cumberland,Y,N,Y,N,N,"47,980.00",0,0,35.03,-78.86
-8761408.315,4165396.488,2012/01/27 00:00:00+00,2014/10/23 00:00:00+00,2018/12/31 00:00:00+00,42,SDTF-26-04,NCS-01177,Jim's Liquid Waste Hauling LLC,Chip,Humphrey,(910) 483-8873,4800 Front Street,Stedman,NC,28391,Cumberland,N,Y,Y,N,Y,"98,600.00",0,0,35.01,-78.71
-8776344.051,4158392.3,2015/09/22 00:00:00+00,2017/12/20 00:00:00+00,2018/12/31 00:00:00+00,43,SDTF-26-05,NCS-01330,Brocks Septic Tank Service,Joshua,Hanlon,(910) 323-4672,2990 Ervin Alston Road,Fayetteville,NC,28306,Cumberland,Y,N,Y,N,Y,"104,000.00",0,0,34.96,-78.84
-8442949.969,4321728.877,1996/02/22 00:00:00+00,2014/03/05 00:00:00+00,2019/03/03 00:00:00+00,44,SDTF-27-06,NCS-00090,Brocks Septic Tank Service,Roy,Etheridge,(252) 261-3073,PO Box 296,Powells Point,NC,27966,Currituck,N,Y,Y,Y,Y,"38,000.00",0,0,36.15,-75.84
-8460165.528,4351921.174,2009/04/13 00:00:00+00,2014/07/30 00:00:00+00,2018/12/10 00:00:00+00,45,SDTF-27-11,NCS-00210,Register's Septic Tank Pumping,Paul,Hoffman,(252) 339-4900,110 Enterprise Drive,Elizabeth City,NC,27909,Currituck,N,Y,Y,Y,Y,"11,000.00",0,0,36.37,-76.00
-8441244.554,4316358.917,2010/11/18 00:00:00+00,2017/04/17 00:00:00+00,2022/04/17 00:00:00+00,46,SDTF-27-17,NCS-01151,Hall's Septic Tank Cleaning Service,J. Bryan,Smith,(252) 255-2030,PO Box 2560,Kitty Hawk,NC,27949,Currituck,Y,Y,Y,Y,Y,"46,000.00",0,0,36.11,-75.83
-8460006.341,4351557.574,2010/11/18 00:00:00+00,2017/04/17 00:00:00+00,2022/04/14 00:00:00+00,47,SDTF-27-19,NCS-01151,Rogers Septic Tank Service,J. Bryan,Smith,(252) 255-2030,PO Box 2560,Kitty Hawk,NC,27949,Currituck,Y,Y,Y,Y,Y,"88,000.00",0,0,36.37,-76.00
-8461395.608,4360106.127,2010/11/18 00:00:00+00,2012/03/15 00:00:00+00,2017/02/21 00:00:00+00,48,SDTF-27-20,NCS-00242,C & C Septic Tank Service,C. S.,Hines,(252) 232-3121,3178 Caratoke Hwy,Currituck,NC,27929,Currituck,Y,Y,Y,N,N,"20,000.00",20,0,36.43,-76.01
-8442805.253,4322378.249,2016/05/05 00:00:00+00,2017/04/17 00:00:00+00,2022/04/17 00:00:00+00,49,SDTF-27-22,NCS-01151,Haywood Jordans Septic Service,J. Bryan,Smith,(252) 255-2030,PO Box 2560,Kitty Hawk,NC,27949,Currituck,Y,Y,Y,Y,Y,"284,000.00",0,0,36.16,-75.84
-8442554.785,4321534.486,2017/06/23 00:00:00+00,2017/06/23 00:00:00+00,2018/06/23 00:00:00+00,50,SDTF-27-23,NCS-01377,S & S Septic Tank Pumping,Jonathan,Younts,(252) 489-9313,5150 Woods Road,Kitty Hawk,NC,27949,Currituck,N,Y,Y,Y,N,"20,000.00",20,0,36.15,-75.84
-8426824.227,4192465.589,2003/08/13 00:00:00+00,2017/08/30 00:00:00+00,2022/08/30 00:00:00+00,51,SDTF-28-02,NCS-00983,Cool Park Pumping,Ted,Midgett,(252) 986-2460,PO Box 520,Hatteras,NC,27943,Dare,Y,N,N,Y,N,"1,200.00",0,0,35.21,-75.70
-8920566.244,4273627.833,2017/03/09 00:00:00+00,2017/03/09 00:00:00+00,2018/03/09 00:00:00+00,52,SDTF-29-03,NCS-00942,S & B Maintenance LLC,Jason,Gibson,(336) 474-1436,280 Cunningham Brickyard Road,Lexington,NC,27292,Davidson,N,N,Y,N,N,"20,000.00",20,0,35.80,-80.13
-8697958.432,4164678.882,1996/04/29 00:00:00+00,2013/02/06 00:00:00+00,2017/10/11 00:00:00+00,53,SDTF-31-07,NCS-00256,Valley Proteins Inc. (Rose Hill NC),Kenneth,Register,(910) 293-4022,630 Penny Branch Rd,Warsaw,NC,28398,Duplin,N,Y,Y,Y,N,"5,000.00",5,0,35.01,-78.14
-8687129.272,4141932.483,1998/12/17 00:00:00+00,2011/08/11 00:00:00+00,2016/08/11 00:00:00+00,54,SDTF-31-08,NCS-00301,Stay Clean,David,Frey,(910) 289-2083,469 Yellow Cut Rd,Rose Hill,NC,28458,Duplin,Y,N,Y,N,N,"11,000.00",11,0,34.84,-78.04
-8657545.004,4161734.194,2000/03/24 00:00:00+00,2017/08/30 00:00:00+00,2022/08/30 00:00:00+00,55,SDTF-31-10,NCS-00810,Triple T Pumping,Roy,Heath Jr,(910) 347-6181,4025 Richlands Hwy,Jacksonville,NC,28540,Duplin,N,Y,N,N,N,"15,000.00",15,0,34.98,-77.77
-8659513.133,4148097.148,2000/07/12 00:00:00+00,2015/06/16 00:00:00+00,2019/04/24 00:00:00+00,56,SDTF-31-11,NCS-00259,Triple T Pumping,Emmett,Hall,(910) 298-5750,297 Durwood Evans Rd,Beulaville,NC,28518,Duplin,Y,Y,N,N,N,"5,000.00",5,0,34.88,-77.79
-8682473.891,4182223.215,2003/05/22 00:00:00+00,2016/08/11 00:00:00+00,2019/01/01 00:00:00+00,57,SDTF-31-12,NCS-00254,Cannons Septic Tank Service Inc.,Eldridge Ray,Brock,(919) 658-2832,2899 Summerlin Crossroads Rd,Mt Olive,NC,28365,Duplin,Y,Y,Y,N,Y,"58,000.00",0,0,35.13,-78.00
-8677068.216,4152585.767,2007/03/30 00:00:00+00,2011/06/14 00:00:00+00,2016/06/13 00:00:00+00,58,SDTF-31-14,NCS-01046,Cheek Environmental,James,Dobson,(910) 296-4620,278 Graham Dobson Rd,Magnolia,NC,28453,Duplin,N,Y,Y,Y,N,"20,000.00",20,0,34.92,-77.95
-8674615.848,4143249.514,2010/03/03 00:00:00+00,2014/07/23 00:00:00+00,2019/06/01 00:00:00+00,59,SDTF-31-16,NCS-01046,Millers Septic Service,James A,Dobson,(910) 296-4620,278 Graham Dobson Rd,Magnolia,NC,28453,Duplin,N,Y,Y,Y,Y,"20,000.00",0,0,34.85,-77.93
-8781628.388,4298481.927,2017/03/09 00:00:00+00,2017/03/09 00:00:00+00,2018/03/09 00:00:00+00,60,SDTF-32-03,NCS-01374,Pearce Concrete,Jim,Lanier,(704) 263-8186,1401 Angier Avenue,Durham,NC,27703,Durham,Y,N,Y,N,N,"40,000.00",40,0,35.98,-78.89
-8653389.694,4286946.584,2005/11/01 00:00:00+00,2012/06/27 00:00:00+00,2016/10/11 00:00:00+00,61,SDTF-33-06,NCS-00470,Powell's Septic Tank Service,Blake,Boswell,(252) 977-9384,PO Box 236,Sharpsburg,NC,27878,Edgecombe,Y,Y,Y,Y,N,"37,000.00",37,0,35.90,-77.73
-8939528.406,4325017.502,1997/06/26 00:00:00+00,2017/12/20 00:00:00+00,2022/12/20 00:00:00+00,62,SDTF-34-01,NCS-00052,AAA Septic Service Inc.,Jerry T,Sprinkle,(336) 924-8677,4900 Murry Rd,Winston-Salem,NC,27106,Forsyth,N,Y,Y,N,N,"3,000.00",3,0,36.18,-80.31
-8930704.11,4310796.046,2001/11/27 00:00:00+00,2017/09/22 00:00:00+00,2022/03/01 00:00:00+00,63,SDTF-34-02,NCS-00934,Roberts Septic Tank Cleaners,Rod,Sides,(704) 904-0300,P.O. Box 208,Lewisville,NC,27023,Forsyth,N,N,Y,N,N,"16,125.00",16,125,36.07,-80.23
-8931187.237,4307573.698,2016/09/30 00:00:00+00,2017/12/20 00:00:00+00,2022/06/30 00:00:00+00,64,SDTF-34-06,NCS-01372,Gerald Temple Backhoe Services LLC,Joshua,Hanlon,(704) 497-0455,750 Palmer Lane,Winston Salem,NC,27107,Forsyth,N,N,Y,N,N,"95,000.00",0,0,36.05,-80.23
-8728851.817,4179961.12,1996/03/25 00:00:00+00,2014/08/28 00:00:00+00,2019/08/28 00:00:00+00,65,SDTF-35-01,NCS-00347,Dudley's Septic Tank Service,Denise R.,Roberts,(919) 494-2914,431 South Cheatham Street,Franklinton,NC,27525,Franklin,N,Y,N,N,N,"1,500.00",0,0,35.12,-78.41
-8725004.615,4300582.845,2008/05/23 00:00:00+00,2016/06/14 00:00:00+00,2018/04/01 00:00:00+00,66,SDTF-35-05,NCS-00858,Parks Septic Tank Cleaning Service,Keith,Clemons,(919) 872-2202,3008 Dawnbrook Drive,Raleigh,NC,27604,Franklin,N,Y,Y,N,N,"6,000.00",6,0,36.00,-78.38
-8713043.336,4289357.902,2009/08/11 00:00:00+00,2014/06/26 00:00:00+00,2019/04/01 00:00:00+00,67,SDTF-35-06,NCS-01127,Cooper Septic Tank Service LLC,Ryan Shane,Brantley,(252) 478-3721,37 Pine Ridge Road,Zebulon,NC,27597,Franklin,N,Y,Y,Y,Y,"15,500.00",0,0,35.92,-78.27
-8711128.641,4290526.34,2008/09/13 00:00:00+00,2017/03/09 00:00:00+00,2022/03/09 00:00:00+00,68,SDTF-35-07,NCS-01127,Billingsley Septic Tank Co.,Shane,Brantley,(252) 478-3721,37 Pine Ridge Road,Zebulon,NC,27597,Franklin,Y,Y,Y,Y,Y,"111,000.00",0,0,35.93,-78.25
-8725465.478,4299724.267,2017/08/03 00:00:00+00,2017/08/03 00:00:00+00,2018/08/03 00:00:00+00,69,SDTF-35-10,NCS-01317,Gann Brothers Septic Tank Service Inc.,Marlon,Lewis,(919) 818-4342,186 EF Cotttrell Road,Louisburg,NC,27549,Franklin,N,Y,Y,N,N,"4,500.00",0,0,35.99,-78.38
-9035726.257,4213118.08,1998/09/21 00:00:00+00,2015/06/09 00:00:00+00,2017/03/20 00:00:00+00,70,SDTF-36-04,NCS-01373,Overbey's,Jim,Lanier,(704) 263-8186,131 Mariposa Road,Stanley,NC,28164,Gaston,N,Y,N,N,N,"226,000.00",0,0,35.36,-81.17
-9027646.689,4214559.634,2007/08/17 00:00:00+00,2013/09/27 00:00:00+00,2018/09/27 00:00:00+00,71,SDTF-36-05,NCS-01373,Hoke Septic Service Inc,Jim,Lanier,(704) 263-8186,131 Mariposa Road,Stanley,NC,28164,Gaston,N,Y,Y,N,N,"12,000.00",12,0,35.37,-81.10
-9038485.867,4186722.919,2002/06/10 00:00:00+00,2013/07/25 00:00:00+00,2018/07/25 00:00:00+00,72,SDTF-36-07,NCS-00876,Jeff Lawson Septic Tank & Pumping Service,Robert,Vogler,(704) 864-9941,5533 South York Road,Gastonia,NC,28052,Gaston,Y,N,Y,N,N,"7,824.00",0,0,35.17,-81.19
-9050967.009,4218373.287,2004/04/19 00:00:00+00,2014/12/31 00:00:00+00,2019/12/31 00:00:00+00,73,SDTF-36-10,NCS-00868,V & S Septic Service,Bryson,Willis,(704) 435-2326,P.O. Box 86,Cherryville,NC,28021,Gaston,N,Y,Y,N,N,"64,000.00",64,0,35.40,-81.31
-9039291.821,4219071.166,2012/06/28 00:00:00+00,2013/06/25 00:00:00+00,2018/06/25 00:00:00+00,74,SDTF-36-12,NCS-00883,Boswell & Son Septic Tank Service Inc.,Robert,Ray,(704) 748-9595,1158 Miles Road,Dallas,NC,28034,Gaston,Y,Y,Y,N,Y,"15,000.00",0,0,35.41,-81.20
-9020876.237,4185730.24,2012/09/26 00:00:00+00,2014/02/27 00:00:00+00,2019/02/27 00:00:00+00,75,SDTF-36-13,NCS-01236,Jenkins Waste Management Inc,John,Maxwell,(704) 957-0509,220 Commodore Court,Belmont,NC,28012,Gaston,Y,Y,N,N,N,"1,000.00",1,0,35.16,-81.04
-9308287.578,4219510.948,2005/08/04 00:00:00+00,2012/07/17 00:00:00+00,2017/07/17 00:00:00+00,76,SDTF-38-01,NCS-01165,Wesson Septic Tank Service Inc,David,Crisp,(828) 479-2388,P.O. Box 945,Bryson City,NC,28713,Graham,Y,N,N,Y,N,"1,000.00",1,0,35.41,-83.62
-9309555.507,4218714.71,2005/08/04 00:00:00+00,2012/07/17 00:00:00+00,2017/07/17 00:00:00+00,77,SDTF-38-02,NCS-01165,Leonard McSwain Septic Tank,David,Prince,(828) 479-3704,237 Prince Boat Dock Road,Almond,NC,28702,Graham,Y,N,N,Y,N,"1,000.00",1,0,35.40,-83.63
-9328045.674,4224058.67,2008/07/02 00:00:00+00,2014/07/02 00:00:00+00,2019/07/02 00:00:00+00,78,SDTF-38-04,NCS-01129,Rhea's Septic Tank,Jeannie,Stewart,(828) 498-2211,Hwy 28  P.O. Box 68,Fontana Dam,NC,28733,Graham,N,N,N,Y,N,"1,200.00",0,0,35.44,-83.80
-8754852.71,4314445.066,2011/04/26 00:00:00+00,2015/06/04 00:00:00+00,2020/06/04 00:00:00+00,79,SDTF-39-02,NCS-01016,Robersonville Ice & Coal Inc.,Mechelle,Dickerson,(919) 528-4422,2622 Chloe Lane,Creedmoor,NC,27522,Granville,Y,Y,N,Y,N,"1,000.00",1,0,36.10,-78.65
-8881635.592,4306527.329,1996/03/25 00:00:00+00,2014/02/27 00:00:00+00,2018/08/31 00:00:00+00,80,SDTF-41-01, ,East Coast Resources,Robert,Vogler,(336) 333-3034,PO Box 3588,Winchester,VA,22604,Guilford,Y,N,Y,N,N,"21,000.00",21,0,36.04,-79.79
-8876041.787,4323740.541,2002/03/19 00:00:00+00,2013/06/07 00:00:00+00,2018/06/07 00:00:00+00,81,SDTF-41-03,NCS-00790,Bogue Sound Septic & Grading Inc,Jim,Hollingsworth,(800)881-1098,6106 Corporate Park Drive,Browns Summit,NC,27214,Guilford,Y,Y,Y,N,Y,"4,825.00",0,0,36.17,-79.73
-8871203.842,4312845.627,2004/12/08 00:00:00+00,2013/09/27 00:00:00+00,2018/08/31 00:00:00+00,82,SDTF-41-04,NCS-00895,Don Locklear Septic Tank Cleaning,Ronnie,Overbey,(336) 697-8169,4712 Old Burlington Road,Greensboro,NC,27405,Guilford,Y,Y,Y,N,N,0,0,0,36.09,-79.69
-8881016.655,4306428.205,2006/10/27 00:00:00+00,2015/12/16 00:00:00+00,2018/08/31 00:00:00+00,83,SDTF-41-05,NCS-00790,Harris Septic Tank Service,Jim,Hollingsworth,(336) 375-1989,519 Patton Avenue,Greensboro,NC,27406,Guilford,N,Y,Y,N,Y,"48,000.00",0,0,36.04,-79.78
-8877267.415,4317650.165,2007/06/01 00:00:00+00,2014/02/27 00:00:00+00,2018/08/31 00:00:00+00,84,SDTF-41-06,NCS-00016,Ace Portable Restrooms Inc.,Joe,Weekly,(866) 736-8564,2316 Joe Brown Road,Greensboro,NC,27405,Guilford,Y,N,N,Y,N,"1,450.00",0,0,36.12,-79.75
-8874203.902,4329282.484,2007/07/11 00:00:00+00,2013/07/25 00:00:00+00,2018/07/09 00:00:00+00,85,SDTF-41-07,NCS-00525,Atlantic All Pro Septic Tank Service Inc.,Richard,Jenkins,(336) 656-4505,3801 Autumn Forest Drive,Browns Summit,NC,27214,Guilford,Y,Y,Y,N,N,"36,900.00",0,0,36.21,-79.72
-8869891.385,4300511.294,2013/08/02 00:00:00+00,2014/08/28 00:00:00+00,2019/08/28 00:00:00+00,86,SDTF-41-09,NCS-01090,Atlantic All Pro Septic Tank Service Inc.,William,Young,(336) 669-7338,2544 Alamance Church Road,Greensboro,NC,27406,Guilford,Y,Y,Y,Y,N,"8,500.00",0,0,36.00,-79.68
-8869164.469,4312550.838,1996/08/27 00:00:00+00,2017/04/26 00:00:00+00,2022/04/26 00:00:00+00,87,SDTF-41-20,NCS-00410,PVI Enterprises,Ronnie,Overbey,(336) 697-8169,5301 Burlington Rd,McLeansville,NC,27301,Guilford,Y,Y,Y,N,N,"30,000.00",30,0,36.09,-79.67
-8648721.821,4356851.038,1996/05/28 00:00:00+00,2017/10/05 00:00:00+00,2020/12/01 00:00:00+00,88,SDTF-42-04,NCS-00336,Billy Heath Septic Tank Service,AM,Powell,(252) 537-2450,PO Box 395,Roanoke Rapids,NC,27870,Halifax,N,Y,N,N,N,"24,000.00",24,0,36.41,-77.69
-8653930.46,4355452.746,1996/02/26 00:00:00+00,2012/02/15 00:00:00+00,2017/02/21 00:00:00+00,89,SDTF-42-05,NCS-00334,E-Z Flow Septic Tanks,James H,Pearce,(252) 537-2410,5795 Highway 903,Roanoke Rapids,NC,27870,Halifax,Y,Y,Y,N,N,"6,500.00",0,0,36.40,-77.74
-8778342.236,4206996.31,1996/02/22 00:00:00+00,2017/05/04 00:00:00+00,2022/05/04 00:00:00+00,90,SDTF-43-03,NCS-00387,Shamrock Environmental Corporation,Gerald R,Temple,(910) 893-4953,1636 Temple Road,Bunnlevel,NC,28323,Harnett,Y,Y,N,N,N,"5,000.00",5,0,35.32,-78.86
-8762169.741,4223550.391,1997/11/21 00:00:00+00,2018/03/08 00:00:00+00,2023/03/08 00:00:00+00,91,SDTF-43-04,NCS-00086,Shamrock Environmental Corporation,William,Hardee Jr,(910) 639-2060,1061 White Memorial Ch Rd,Willow Springs,NC,27592,Harnett,Y,Y,N,N,N,"100,000.00",0,0,35.44,-78.71
-8751407.372,4222177.333,2018/08/03 00:00:00+00,2017/08/03 00:00:00+00,2018/08/03 00:00:00+00,92,SDTF-43-07,NCS-01387,Marshall Cummings Septic Tank Service,Wendy,Willis,(919) 207-4030,2858 Bailey Road,Coats,NC,27521,Harnett,Y,Y,N,N,Y,"5,000.00",0,0,35.43,-78.62
-9184722.943,4217872.098,1996/05/28 00:00:00+00,2014/02/27 00:00:00+00,2019/02/27 00:00:00+00,93,SDTF-45-01,NCS-00340,Dennis Hoyle Services Septic Tank Pumping & Porta-Jon Rentals,Troy L,Alverson Jr,(828) 684-6131,11 Cureton Place,Hendersonville,NC,28791,Henderson,Y,Y,N,N,N,"3,000.00",3,0,35.40,-82.51
-9184454.663,4199495.428,2016/06/14 00:00:00+00,2017/09/22 00:00:00+00,2022/09/22 00:00:00+00,94,SDTF-45-02,NCS-01312,Roy Heath Septic Tank Service,Greg,Trollinger,(828)329-3666,P.O. Box 160,Hendersonville,NC,28793,Henderson,Y,Y,N,N,N,"4,000.00",4,0,35.26,-82.51
-8824695.672,4154214.984,2003/02/14 00:00:00+00,2014/08/28 00:00:00+00,2019/01/01 00:00:00+00,95,SDTF-47-02,NCS-00421,Parks Portable Toilets Inc,James,Locklear,(910) 875-4748,2517 North Duffie Road,Red Springs,NC,28377,Hoke,N,Y,Y,Y,N,"7,500.00",0,0,34.93,-79.27
-8999440.556,4298150.385,1996/02/22 00:00:00+00,2017/06/30 00:00:00+00,2022/03/01 00:00:00+00,96,SDTF-49-02,NCS-00147,Hunter's Roost Farms Septic Service,Keith V,Lentz,(704) 876-1834,418 Lentz Rd,Statesville,NC,28677,Iredell,Y,Y,Y,N,N,"90,000.00",90,0,35.98,-80.84
-9005198,4254834.268,2002/10/14 00:00:00+00,2013/06/25 00:00:00+00,2018/06/25 00:00:00+00,97,SDTF-49-04,NCS-00935,A-1 Septic Tank Cleaning,David,Helms,(704) 528-3328,1152 Perth Road,Troutman,NC,28166,Iredell,Y,N,N,Y,N,500,0,0,35.67,-80.90
-9004828.419,4234614.885,2013/09/27 00:00:00+00,2014/12/31 00:00:00+00,2019/12/31 00:00:00+00,98,SDTF-49-06,NCS-01270,Dennis Willis Septic Service,Zeb,Moser,(704) 892-3478,827 Langtree Road,Mooresville,NC,28117,Iredell,N,Y,N,N,N,300,0,0,35.52,-80.89
-8752666.425,4233331.044,2010/01/21 00:00:00+00,2016/01/16 00:00:00+00,2021/01/11 00:00:00+00,99,SDTF-51-03,NCS-00304,Valley Proteins Inc. (Wadesboro NC),Brian,Dixon,(919) 427-1623,448 Wiggins Road,Angier,NC,27501,Johnston,N,Y,N,Y,N,"5,500.00",0,0,35.51,-78.63
-8726185.715,4244228.472,2016/01/16 00:00:00+00,2017/02/22 00:00:00+00,2020/01/01 00:00:00+00,100,SDTF-51-05,NCS-01183,Valley Proteins Inc. (Fayetteville NC),Tom,Balaker,(910)324-1420,134 Uzzle Industrial Drive,Clayton,NC,27520,Johnston,N,N,N,Y,N,"10,000.00",10,0,35.59,-78.39
-8641035.21,4193506.563,1996/05/28 00:00:00+00,2015/12/30 00:00:00+00,2020/12/30 00:00:00+00,101,SDTF-54-01,NCS-00388,Valley Proteins Inc. (Gastonia NC),Carey Allen,Dudley,(252) 523-9634,2852 Hwy 252 South,Kinston,NC,28504,Lenoir,Y,Y,N,N,N,"18,000.00",18,0,35.22,-77.62
-8645943.287,4193122.318,2015/01/12 00:00:00+00,2017/03/13 00:00:00+00,2022/02/24 00:00:00+00,102,SDTF-54-02,NCS-00739,Travel Resorts of NC LLC,Billy,Heath,(252) 747-1900,3431 Hwy 55 W,Kinston,NC,28504,Lenoir,Y,Y,N,Y,N,"4,000.00",4,0,35.21,-77.67
-9064053.728,4236797.932,2004/04/06 00:00:00+00,2014/03/18 00:00:00+00,2019/03/18 00:00:00+00,103,SDTF-55-01,NCS-00805,Ray's,Dennis,Hoyle,(704) 276-2080,P.O. Box 84,Vale,NC,28168,Lincoln,N,Y,N,Y,N,"34,000.00",34,0,35.53,-81.42
-9060718.596,4221382.268,2014/03/18 00:00:00+00,2015/04/16 00:00:00+00,2020/04/16 00:00:00+00,104,SDTF-55-03,NCS-01249,Triad Industrial Services Inc.,Richard,Black,(704) 435-0938,3458 Zion Hill Road,Cherryville,NC,28021,Lincoln,Y,Y,N,N,N,"8,000.00",8,0,35.42,-81.39
-9064943.171,4223024.373,2018/04/04 00:00:00+00,2018/04/04 00:00:00+00,2019/04/04 00:00:00+00,105,SDTF-55-04,NCS-01083,Craven Ag Services Inc,Jonathan,Watts,(704) 913-7685,3661 Eaker Road,Cherryville,NC,28021,Lincoln,Y,Y,N,N,N,"14,000.00",14,0,35.43,-81.43
-9015874.652,4234967.754,1996/08/27 00:00:00+00,2015/12/16 00:00:00+00,2020/12/16 00:00:00+00,106,SDTF-55-20,NCS-00016,Albemarle Septic Service,Gary G,Dellinger,(704) 483-5641,8151 Webbs Rd,Denver,NC,28037,Lincoln,Y,N,Y,Y,N,"108,000.00",0,0,35.52,-80.99
-9124123.952,4266258.228,2010/07/29 00:00:00+00,2016/09/09 00:00:00+00,2021/09/09 00:00:00+00,107,SDTF-56-02,NCS-01164,M & K Septic Tank Pumping,Van,Boyd,(828) 652-3575,608 Marina Drive,Nebo,NC,28761,McDowell,Y,N,N,Y,N,"1,000.00",1,0,35.75,-81.96
-9126571.867,4263816.969,2011/03/02 00:00:00+00,2017/09/22 00:00:00+00,2022/09/22 00:00:00+00,108,SDTF-56-03,NCS-01201,River's Edge Marina,Mark,Mercier,(828) 652-2907,4510 Lake James Rd,Marion,NC,28752,McDowell,Y,N,N,Y,N,"2,000.00",2,0,35.73,-81.99
-9283379.842,4184590.608,1996/03/08 00:00:00+00,2015/06/04 00:00:00+00,2020/06/04 00:00:00+00,109,SDTF-57-01,NCS-00220,Regan Hudson Farm,Nelson,Bates,(828) 524-6483,1687 Georgia Highway,Franklin,NC,28734,Macon,Y,Y,Y,Y,N,"78,700.00",0,0,35.15,-83.39
-9283577.99,4185486.51,2013/05/08 00:00:00+00,2014/06/26 00:00:00+00,2019/06/26 00:00:00+00,110,SDTF-57-02,NCS-00221,Radio Island Yacht & Boating Club,Tim,Bates,(828) 524-2100,25 Summer Hill Drive,Franklin,NC,28734,Macon,Y,Y,N,Y,N,"4,000.00",4,0,35.16,-83.40
-9282818.791,4181863.863,2017/03/09 00:00:00+00,2017/03/09 00:00:00+00,2018/03/09 00:00:00+00,111,SDTF-57-03,NCS-01194,Environmental Relief Technology Inc,Greg,Raby,(828) 342-5700,252 Fox Ridge Circle,Franklin,NC,28734,Macon,Y,Y,N,Y,N,"10,500.00",0,0,35.13,-83.39
-8582199.52,4271776.388,1996/02/22 00:00:00+00,2016/10/07 00:00:00+00,2021/10/07 00:00:00+00,112,SDTF-59-02,NCS-00107,Morningstar Marina/ Lake Norman North LLC,Russ,Ayers,(252) 792-5978,1150 Eli Bowen Rd.,Williamston,NC,27892,Martin,Y,Y,Y,Y,Y,"136,000.00",0,0,35.79,-77.10
-8605323.918,4279983.33,1996/02/22 00:00:00+00,2014/07/30 00:00:00+00,2019/07/30 00:00:00+00,113,SDTF-59-03,NCS-00611,64 Portables Inc.,C Morton,Hurst,(252) 795-4782,PO Box 106,Robersonville,NC,27871,Martin,Y,Y,Y,Y,N,"24,000.00",24,0,35.85,-77.30
-8583098.981,4280073.974,2005/11/28 00:00:00+00,2016/08/05 00:00:00+00,2021/08/05 00:00:00+00,114,SDTF-59-05,NCS-00107,D & D Organic Farming LLC (DBA Royal Thrones Lavatories),Russ,Ayers,(252) 792-5978,1150 Eli Bowen Rd,Williamston,NC,27892,Martin,N,Y,Y,Y,Y,"82,000.00",0,0,35.85,-77.10
-8581203.21,4271615.825,2007/05/17 00:00:00+00,2014/07/30 00:00:00+00,2018/07/15 00:00:00+00,115,SDTF-59-06,NCS-01058,Bear Paw Marina dba Mountain View Marina,Brent,Roberson,(252) 792-4155,PO Box 1596,Williamston,NC,27892,Martin,N,Y,Y,Y,Y,"26,000.00",0,0,35.79,-77.09
-8995771.466,4198782.428,2010/07/29 00:00:00+00,2014/01/23 00:00:00+00,2018/08/31 00:00:00+00,116,SDTF-60-07,NCS-01094,Mountain Creek Marina,Dayton & Ronnie,Oaks,(704) 332-0911,P.O. Box 19491,Charlotte,NC,28219,Mecklenburg,Y,Y,Y,Y,Y,"63,000.00",0,0,35.26,-80.81
-9003813.186,4201550.163,2016/09/30 00:00:00+00,2018/04/04 00:00:00+00,2021/09/30 00:00:00+00,117,SDTF-60-09,NCS-01331,Teach's Lair Development Co. LLC,Hanlon,Joshua,(707) 393-8181,4826 Worth Place,Charlotte,NC,28216,Mecklenburg,Y,N,Y,N,N,"91,500.00",0,0,35.28,-80.88
-8676617.372,4050836.463,1996/03/08 00:00:00+00,2013/06/11 00:00:00+00,2018/06/11 00:00:00+00,118,SDTF-65-01,NCS-00121,Ben Harrelson DBA Rudolph Inman Septic Tank Service,Donovan,Dukes,(910) 798-1238,3920 River Rd,Wilmington,NC,28412,New Hanover,Y,Y,Y,Y,N,"119,000.00",0,0,34.16,-77.94
-8675008.806,4064751.953,2010/02/10 00:00:00+00,2015/01/12 00:00:00+00,2019/01/12 00:00:00+00,119,SDTF-65-03,NCS-01153,Ellis Tew & Charles Barber Septic Tank Cleaning,Anthony A.,Loreti,(910) 352-7249,PO Box 2151,Carolina Beach,NC,28428,New Hanover,N,Y,Y,N,N,"24,000.00",24,0,34.27,-77.93
-8673278.901,4067440.903,2012/08/13 00:00:00+00,2014/09/23 00:00:00+00,2019/09/23 00:00:00+00,120,SDTF-65-04,NCS-01221,Braxton Septic Tank Service,David,Inman,(910) 763-1146,2631 Blue Clay Rd.,Wilmington,NC,28405,New Hanover,N,Y,Y,N,N,"8,000.00",8,0,34.29,-77.91
-8629927.751,4133963.079,1997/06/25 00:00:00+00,2017/08/30 00:00:00+00,2022/08/30 00:00:00+00,121,SDTF-67-01,NCS-00121,Seascape at Holden Plantation Marina,Greer,David,(910) 455-6805,3920 River Rd,Wilmington,NC,28412,Onslow,Y,Y,Y,Y,Y,500,0,0,34.78,-77.52
-8596127.814,4139267.7,1997/07/11 00:00:00+00,2012/10/12 00:00:00+00,2017/10/12 00:00:00+00,122,SDTF-67-05,NCS-00727,Sea Gate Association Inc.,Linda,Melville,(910) 743-2266,2032 Belgrade Swansboro Rd,Mayesville,NC,28555,Onslow,N,Y,Y,Y,N,"9,000.00",9,0,34.82,-77.22
-8630218.295,4141398.119,2004/04/19 00:00:00+00,2016/02/11 00:00:00+00,2021/02/11 00:00:00+00,123,SDTF-67-10,NCS-01182,J & B Septic Service Portable Toilets,Tom,Balaker,(910) 347-2424,5680 Richlands Hwy,Jacksonville,NC,28540,Onslow,Y,Y,Y,Y,N,"59,000.00",59,0,34.83,-77.53
-8635137.504,4144454.103,2001/05/16 00:00:00+00,2014/06/19 00:00:00+00,2019/06/09 00:00:00+00,124,SDTF-67-11,NCS-00038,Dobson Septic Tank Pumping Service,Ray A,Zamora Sr,(910) 347-7867,1142 Gould Road,Jacksonville,NC,28540,Onslow,Y,Y,Y,N,N,"60,000.00",60,0,34.86,-77.57
-8618381.694,4103467.936,2003/08/18 00:00:00+00,2018/05/02 00:00:00+00,2023/05/02 00:00:00+00,125,SDTF-67-12,NCS-00022,Dobson Septic Tank Pumping Service,Jody,Thompson,(910) 327-2556,PO Box 1005,Sneads Ferry,NC,28460,Onslow,N,Y,Y,Y,Y,"41,700.00",0,0,34.55,-77.42
-8596203.512,4139464.316,2005/07/12 00:00:00+00,2012/10/12 00:00:00+00,2017/10/12 00:00:00+00,126,SDTF-67-14,NCS-00727,B-Line Portable Restrooms Rentals Inc.,Linda,Melville,(910) 743-2266,2032 Belgrade Swansboro Rd,Maysville,NC,28555,Onslow,N,Y,Y,Y,N,"28,400.00",0,0,34.82,-77.22
-8639004.743,4149854.647,2012/10/17 00:00:00+00,2014/03/28 00:00:00+00,2019/03/28 00:00:00+00,127,SDTF-67-16,NCS-01232,Roberson Septic LLC,Pittman II,Ronald,(910) 330-2784,1003 Gregory Fork Rd.,Richlands,NC,28574,Onslow,N,Y,Y,Y,N,"16,500.00",0,0,34.90,-77.61
-8630686.95,4139477.876,2017/07/07 00:00:00+00,2017/07/07 00:00:00+00,2018/07/07 00:00:00+00,128,SDTF-67-17,NCS-01401,Hall Septic Tank Service,Joshua,Rochelle,(910) 324-7655,1716 Catherine Lake Road,Jacksonville,NC,28540,Onslow,N,Y,N,N,N,"22,000.00",22,0,34.82,-77.53
-8527728.667,4177050.474,2013/06/25 00:00:00+00,2015/03/20 00:00:00+00,2020/03/20 00:00:00+00,129,SDTF-69-03,NCS-01262,Tarboro Septic Tank NC LLC,Scott,Dickinson,(252) 249-2025,1242 Paradise Shores Rd.,Merritt,NC,28556,Pamlico,N,N,N,Y,N,"1,200.00",0,0,35.10,-76.61
-8488684.468,4350259.496,1996/05/25 00:00:00+00,2016/03/10 00:00:00+00,2021/03/10 00:00:00+00,130,SDTF-70-01,NCS-00106,Eagletrace Home Owner's Association,Edward D,Brinson,(252) 335-7774,1731 N Road Street,Elizabeth City,NC,27909,Pasquotank,N,Y,Y,Y,N,"10,000.00",10,0,36.36,-76.26
-8482483.354,4336494.548,2007/05/01 00:00:00+00,2013/06/03 00:00:00+00,2018/04/01 00:00:00+00,131,SDTF-70-02,NCS-00210,1st Choice Septic,Paul,Hoffman,(252) 339-4900,110 Enterprise Dr,Elizabeth City,NC,27909,Pasquotank,Y,Y,Y,Y,N,"12,000.00",12,0,36.26,-76.20
-8688895.912,4242817.24,2011/12/22 00:00:00+00,2014/03/05 00:00:00+00,2019/03/03 00:00:00+00,132,SDTF-71-08,NCS-01222,A & B Portable Toilets Inc.,Wesley,Wooten,(910 283-9823,8155 Malpass Corner Rd.,Currie,NC,28435,Pender,N,Y,Y,Y,N,"24,000.00",24,0,35.58,-78.05
-8791516.898,4356069.577,2010/01/29 00:00:00+00,2016/03/31 00:00:00+00,2021/03/31 00:00:00+00,133,SDTF-73-01,NCS-01163,L&L Environmental Services LLC,Kippy,Blanks,(336) 597-2005,P.O. Box 1037,Roxboro,NC,27573,Person,N,N,N,Y,N,"1,500.00",0,0,36.40,-78.98
-8624459.738,4269702.978,1996/09/18 00:00:00+00,2011/05/12 00:00:00+00,2015/05/12 00:00:00+00,134,SDTF-74-03,NCS-00185,L&L Environmental Services LLC,Bobby L,Thomas,(252) 758-1445,PO Box 1643,Greenville,NC,27835,Pitt,N,Y,Y,N,N,"20,000.00",20,0,35.77,-77.47
-8632219.82,4240175.945,1998/01/09 00:00:00+00,2017/02/16 00:00:00+00,2022/02/16 00:00:00+00,135,SDTF-74-06,NCS-00246,The Drainage Solution Company LLC,Curtis L,Matthews Jr.,(252) 714-7890,PO Box 233,Farmville,NC,27828,Pitt,Y,Y,N,N,N,"20,000.00",20,0,35.56,-77.54
-8611657.997,4215481.18,2001/08/07 00:00:00+00,2014/10/24 00:00:00+00,2017/12/12 00:00:00+00,136,SDTF-74-13,NCS-00314,David Brantley & Sons Inc.,Al,Cannon,(252) 524-4282,PO Box 65,Grifton,NC,28530,Pitt,Y,Y,Y,Y,Y,"36,000.00",0,0,35.38,-77.36
-8618160.168,4252405.149,2001/12/19 00:00:00+00,2014/09/23 00:00:00+00,2019/09/23 00:00:00+00,137,SDTF-74-14,NCS-00261,David Brantley & Sons Inc.,Chester,Rogers,(252) 758-5164,309 Family Lane,Greenville,NC,27834,Pitt,N,Y,Y,N,N,"6,000.00",6,0,35.65,-77.42
-8614986.449,4253003.816,2004/05/26 00:00:00+00,2016/08/31 00:00:00+00,2021/08/31 00:00:00+00,138,SDTF-74-16,NCS-00250,Fontana Village Resort,Jim & Gaye,Stallings,(252) 830-1016,4000 Bach Circle,Greenville,NC,27858,Pitt,Y,Y,Y,Y,Y,"6,000.00",0,0,35.65,-77.39
-8624456.399,4269638.49,2011/10/05 00:00:00+00,2013/05/13 00:00:00+00,2015/04/13 00:00:00+00,139,SDTF-74-18,NCS-01354,B & M Septic Tank Inc.,Jamey,Way,(252) 823-3600,211 Barrington Dr.,Tarboro,NC,27886,Pitt,N,Y,Y,N,N,"28,000.00",28,0,35.77,-77.47
-8857932.333,4249767.021,2004/06/04 00:00:00+00,2016/03/31 00:00:00+00,2021/03/31 00:00:00+00,140,SDTF-76-05,NCS-00319,Sparks Environmental Services Inc.,Randy,Cheek,(336) 879-3764,7748 Lanes Mill Road,Bennett,NC,27208,Randolph,Y,Y,Y,Y,N,"43,000.00",43,0,35.63,-79.57
-8895846.638,4288890.562,2013/06/07 00:00:00+00,2018/04/04 00:00:00+00,2023/04/04 00:00:00+00,141,SDTF-76-06,NCS-01253,Atlantic Sewage Control,Charles,Driggers,(336) 434-6202,7096 Beane Road,Archdale,NC,27263,Randolph,Y,Y,N,N,N,"2,500.00",0,0,35.91,-79.91
-8863216.669,4182970.543,2008/04/04 00:00:00+00,2014/05/15 00:00:00+00,2019/05/15 00:00:00+00,142,SDTF-77-05,NCS-00880,Atlantic Sewage Control,John,Campbell,(910) 652-5559,1059 Sycamore Lane,Jackson Springs,NC,27281,Richmond,Y,Y,N,N,N,"2,400.00",0,0,35.14,-79.62
-8796033.13,4132042.757,1999/08/19 00:00:00+00,2014/06/26 00:00:00+00,2019/05/29 00:00:00+00,143,SDTF-78-18,NCS-00794,Atlantic Sewage Control,Marshall,Cummings,(910) 737-6310,1234 W McDuffie Cr Rd,St Pauls,NC,28384,Robeson,N,Y,Y,N,Y,"6,000.00",0,0,34.77,-79.02
-8776007.866,4121222.207,2005/01/03 00:00:00+00,2016/03/31 00:00:00+00,2021/03/31 00:00:00+00,144,SDTF-78-19,NCS-00691,ECLP Co.,Rachel,Locklear,(910) 671-0563,2161 Evergreen Church Road,Pembroke,NC,28372,Robeson,Y,Y,Y,Y,N,"20,000.00",20,0,34.69,-78.84
-8778301.048,4120468.178,2016/10/28 00:00:00+00,2017/12/20 00:00:00+00,2022/12/20 00:00:00+00,145,SDTF-78-21,NCS-01307,Premium Tanks & Stone,Jimmie,Carter,(910) 816-4805,2337 Smith Mill Road,Lumberton,NC,28358,Robeson,N,Y,N,N,N,"25,000.00",25,0,34.68,-78.86
-8798443.197,4124046.542,2017/07/14 00:00:00+00,2017/07/14 00:00:00+00,2018/07/14 00:00:00+00,146,SDTF-78-22,NCS-01376,Black Bear Development,Cody,Hunt,(910) 738-5311,P.O. Box 390,Lumberton,NC,28359,Robeson,N,Y,Y,Y,Y,"142,000.00",0,0,34.71,-79.04
-8864984.422,4337711.193,2003/10/17 00:00:00+00,2014/12/31 00:00:00+00,2019/12/31 00:00:00+00,147,SDTF-79-02,NCS-00397,Fontana Lake Waste Recovery Inc.,Wayne,Billingsley,(336) 342-0608,149 Penn Road,Reidsville,NC,27320,Rockingham,Y,N,Y,N,N,"20,000.00",20,0,36.27,-79.64
-8907763.389,4356808.16,1996/03/25 00:00:00+00,2014/12/31 00:00:00+00,2019/12/31 00:00:00+00,148,SDTF-79-04,NCS-00404,Fontana Lake Waste Recovery Inc.,Patrick F,Gann,(336) 427-0922,191 Percy Lane,Mayodan,NC,27027,Rockingham,Y,Y,Y,Y,N,"40,000.00",40,0,36.41,-80.02
-8960995.257,4265731.528,1996/02/26 00:00:00+00,2016/01/16 00:00:00+00,2021/01/16 00:00:00+00,149,SDTF-80-01,NCS-00008,301 Environmental Clean Up,George H,Kirkpatrick,(704) 633-2412,7351 Old Mocksville Rd,Salisbury,NC,28144,Rowan,N,Y,Y,Y,N,"50,000.00",50,0,35.75,-80.50
-8970173.549,4256160.716,2001/02/12 00:00:00+00,2016/08/11 00:00:00+00,2020/08/01 00:00:00+00,150,SDTF-80-02,NCS-00007,Blu Site Solutions of North Carolina Inc.,Benny D,Myers,(704) 633-3962,1882 Briggs Rd,Salisbury,NC,28147,Rowan,Y,Y,Y,Y,Y,"95,000.00",0,0,35.68,-80.58
-9100947.234,4202832.01,1998/03/17 00:00:00+00,2017/04/26 00:00:00+00,2022/04/26 00:00:00+00,151,SDTF-81-05,NCS-00703,Blu Site Solutions of North Carolina Inc. (Clayton),Thomas & Phillip,Harris,(828) 453-0548,1356 Racepath Church Road,Mooresboro,NC,28114,Rutherford,Y,Y,Y,Y,N,"32,000.00",32,0,35.29,-81.76
-8723209.032,4159262.998,1996/03/18 00:00:00+00,2015/04/28 00:00:00+00,2018/11/07 00:00:00+00,152,SDTF-82-04,NCS-00076,Haynes,Donald R,Jordan,(910) 592-8791,260 Beulah Rd,Clinton,NC,28328,Sampson,Y,Y,Y,Y,N,"18,500.00",0,0,34.97,-78.36
-8729751.278,4159397.48,2000/10/10 00:00:00+00,2015/10/15 00:00:00+00,2020/10/15 00:00:00+00,153,SDTF-82-14,NCS-00271,Mountain Septic Service,Wayne,Cannady,(910) 564-6207,1366 Bass Lake Rd,Roseboro,NC,28382,Sampson,Y,Y,Y,Y,N,"36,000.00",36,0,34.97,-78.42
-8721475.788,4160228.859,1996/05/28 00:00:00+00,2015/07/30 00:00:00+00,2020/07/30 00:00:00+00,154,SDTF-82-20,NCS-00273,Lake James Landing LLC,Brenda,Jordan,(910) 592-6630,221 Beulah Road,Clinton,NC,28328,Sampson,Y,Y,Y,N,N,"50,000.00",50,0,34.97,-78.35
-8743639.498,4174724.139,2005/06/28 00:00:00+00,2018/05/02 00:00:00+00,2023/05/02 00:00:00+00,155,SDTF-82-21,NCS-00999,Roberson Septic Service,Ellis,Tew,(910) 567-2567,9389 Dunn Rd,Salemburg,NC,28385,Sampson,Y,Y,N,N,N,"10,000.00",10,0,35.08,-78.55
-8838949.02,4161890.446,2011/03/26 00:00:00+00,2015/12/16 00:00:00+00,2020/08/03 00:00:00+00,156,SDTF-83-03,NCS-00100,Greasecycle,Dale,Jones,(910) 281-5895,31149 Hill Creek Road,Wagram,NC,28396,Scotland,Y,Y,Y,N,N,"18,000.00",18,0,34.99,-79.40
-8835252.099,4137734.212,2015/07/30 00:00:00+00,2017/07/07 00:00:00+00,2022/07/07 00:00:00+00,157,SDTF-83-04,NCS-00394,Inman Septic Services,Emily & Randy,Cooper,(910) 369-2713,P.O. Box 645,Wagram,NC,28396,Scotland,Y,Y,Y,N,N,"3,000.00",3,0,34.81,-79.37
-8932965.009,4368077.166,1996/03/18 00:00:00+00,2017/09/22 00:00:00+00,2022/01/01 00:00:00+00,158,SDTF-85-06,NCS-00457,Lewis Farms,Jeff,Lawson,(336) 593-2746,2984 NC 8 Hwy N,Danbury,NC,27016,Stokes,N,Y,N,N,N,"10,000.00",10,0,36.49,-80.25
-8921593.723,4366502.974,2009/03/31 00:00:00+00,2016/06/14 00:00:00+00,2021/06/14 00:00:00+00,159,SDTF-85-07,NCS-01062,B&R Septic LLC,Alan,Hall,(336) 871-3948,1715 Steele Road,Sandy Ridge,NC,27046,Stokes,N,Y,N,Y,N,"10,000.00",10,0,36.48,-80.14
-8915384.151,4373136.341,2010/01/29 00:00:00+00,2011/05/12 00:00:00+00,2016/05/12 00:00:00+00,160,SDTF-85-11,NCS-01138,Alliwood Septic Service,Joshua,Branscome,(336) 403-2791,1395 Hwy 704 E,Lawsonville,NC,27022,Stokes,N,Y,Y,Y,N,"28,000.00",28,0,36.53,-80.09
-8970125.681,4365734.652,1999/02/12 00:00:00+00,2016/03/31 00:00:00+00,2021/03/31 00:00:00+00,161,SDTF-86-11,NCS-00465,Harbortowne Marina,Bennett/John,Stamper,(336) 786-2402,1401 W Pine St,Mt Airy,NC,27030,Surry,N,Y,N,N,N,"20,000.00",20,0,36.47,-80.58
-9232698.304,4179190.86,2014/10/07 00:00:00+00,2018/03/22 00:00:00+00,2023/03/22 00:00:00+00,162,SDTF-88-01,NCS-01297,Griffin Waste Services,Fritz,Rybert,(404) 851-1889,5775 Glenridge Drive  Suite E-,Atlanta,GA,30328,Transylvania,N,Y,N,N,N,"3,000.00",3,0,35.11,-82.94
-9206119.662,4198613.387,2015/06/19 00:00:00+00,2016/08/11 00:00:00+00,2021/08/11 00:00:00+00,163,SDTF-88-02,NCS-01241,Holiday Kamper Company of Columbia LLC DBA Camping World RV Sales,Chad,Griffin,(828) 281-4549,402 Old Leicester Hwy,Asheville,NC,28806,Transylvania,N,N,N,Y,N,"3,700.00",0,0,35.26,-82.70
-8749767.636,4252550.36,1996/02/22 00:00:00+00,2018/05/02 00:00:00+00,2023/05/02 00:00:00+00,164,SDTF-92-02,NCS-00085,Scenic Ridge Country Campground,BC,Raynor,(919) 606-0604,1018 Hwy 70 W,Garner,NC,27529,Wake,Y,Y,Y,N,N,"112,000.00",0,0,35.65,-78.60
-8735456.402,4289885.746,1996/02/22 00:00:00+00,2016/10/28 00:00:00+00,2021/10/28 00:00:00+00,165,SDTF-92-03,NCS-00084,Driggers Septic Tank,Frank C,Pearce,(919) 556-5018,5008 Rogers Rd,Rolesville,NC,27571,Wake,Y,Y,Y,N,N,"34,700.00",0,0,35.92,-78.47
-8748683.384,4248333.165,1996/07/22 00:00:00+00,2018/05/02 00:00:00+00,2023/05/02 00:00:00+00,166,SDTF-92-07,NCS-00093,Paradise Cove Marina,Bobby Ray,Stallings,(919) 779-1074,7132 Hidden Valley Trail,Garner,NC,27529,Wake,Y,Y,Y,N,N,"40,000.00",40,0,35.62,-78.59
-8742402.739,4256771.923,2012/12/20 00:00:00+00,2015/07/30 00:00:00+00,2020/07/30 00:00:00+00,167,SDTF-92-10,NCS-01247,All Seasons Marina,Larry,Gardner,(919) 772-3155,2300 US Hwy 70 E,Garner,NC,27529,Wake,N,N,N,Y,N,"3,000.00",3,0,35.68,-78.53
-8746446.976,4272042.625,2012/09/24 00:00:00+00,2017/12/28 00:00:00+00,2018/12/31 00:00:00+00,168,SDTF-92-11,NCS-01216,Mountain Falls Luxury Monocoach Resort,Dylan,Gehrken,(919) 817-6142,3900 Commerce Park Drive,Raleigh,NC,27610,Wake,N,N,Y,N,N,"40,500.00",0,0,35.79,-78.57
-8754530.997,4266990.712,2017/06/12 00:00:00+00,2017/06/12 00:00:00+00,2018/06/12 00:00:00+00,169,SDTF-92-12,NCS-01356,Quality Septic LLC,Joseph,VanSchaick,(910) 990-2926,324 S. Wilmington Street,Raleigh,NC,27601,Wake,N,N,Y,N,N,"123,000.00",0,0,35.76,-78.64
-9088689.845,4339999.274,2002/08/15 00:00:00+00,2018/01/13 00:00:00+00,2023/01/13 00:00:00+00,170,SDTF-95-01,NCS-00305,Camp Tekoa Inc,Mike,Garlock,(828) 262-5745,1372 NC Hwy 194 N,Boone,NC,28607,Watauga,Y,Y,Y,Y,N,"39,100.00",39,100,36.29,-81.65
-9089958.887,4342604.162,2011/07/06 00:00:00+00,2017/09/22 00:00:00+00,2021/05/12 00:00:00+00,171,SDTF-95-02,NCS-00305,Victory Septic Solutions,Mike,Garlock,(828) 265-9005,1372 NC Hwy 194 N,Boone,NC,28607,Watauga,N,Y,N,Y,N,"2,000.00",2,0,36.30,-81.66
-8663430.465,4215604.058,1996/05/28 00:00:00+00,2014/11/19 00:00:00+00,2019/01/01 00:00:00+00,172,SDTF-96-01,NCS-00393,Liquid Environmental Solutions,Chris,Parks,(919) 778-0264,798 Parkstown Road,La Grange,NC,28551,Wayne,N,Y,Y,Y,N,"34,000.00",34,0,35.38,-77.82
-8680004.824,4225300.775,1996/05/28 00:00:00+00,2016/06/14 00:00:00+00,2021/06/14 00:00:00+00,173,SDTF-96-02,NCS-00825,Liquid Environmental Solutions,Bonnie P,Howell,(919) 735-9402,PO Box 1611,Goldsboro,NC,27533,Wayne,Y,N,N,Y,N,"3,300.00",0,0,35.45,-77.97
-8701894.689,4205749.447,1999/06/11 00:00:00+00,2014/09/18 00:00:00+00,2019/09/18 00:00:00+00,174,SDTF-96-04,NCS-00752,Grease Outlet.com LLC,Ashley B.,Keen,(919) 922-7909,294 Bennett Rd,Goldsboro,NC,27530,Wayne,Y,Y,Y,Y,Y,"55,000.00",0,0,35.31,-78.17
-8679019.647,4200504.341,2010/03/02 00:00:00+00,2017/07/14 00:00:00+00,2017/12/31 00:00:00+00,175,SDTF-96-11,NCS-00254,Liquid Environmental Solutions (Winston-Salem),Eldridge Ray,Brock,(919) 658-2832,2899 Summerlins Crossroads Rd.,Mt. Olive,NC,28365,Wayne,N,Y,Y,N,N,"6,000.00",6,0,35.27,-77.96
-8688756.763,4226644.156,2012/10/12 00:00:00+00,2014/03/28 00:00:00+00,2019/03/28 00:00:00+00,176,SDTF-96-12,NCS-01225,WRE Earth Farms LLC DBA Stanley Environmental Solutions,Clifton,Griffin,(919) 922-0572,207 Western Wayne Dr.,Pikeville,NC,27863,Wayne,Y,Y,Y,N,N,"20,000.00",20,0,35.46,-78.05
-8660493.857,4253443.59,1997/08/28 00:00:00+00,2016/02/11 00:00:00+00,2021/02/11 00:00:00+00,177,SDTF-98-01,NCS-00115,WRE Earth Farms LLC DBA Stanley Environmental Solutions,Maurice,Mitchell,(252) 243-2226,6522 Speight School Rd,Wilson,NC,27893,Wilson,Y,Y,Y,Y,N,"10,000.00",10,0,35.66,-77.80
-8661112.794,4253669.649,2009/02/03 00:00:00+00,2016/02/11 00:00:00+00,2020/06/01 00:00:00+00,178,SDTF-98-02,NCS-00115,WRE Earth Farms LLC DBA Stanley Environmental Solutions (Durham),Maurice,Mitchell,(252) 243-2226,6522 Speight School Rd.,Wilson,NC,27893,Wilson,N,Y,N,N,N,"20,000.00",20,0,35.66,-77.80
-8691442.902,4244978.648,1998/08/25 00:00:00+00,2014/03/28 00:00:00+00,2019/03/28 00:00:00+00,179,SDTF-98-07,NCS-00077,Enviro-Choice Recycling LLC DBA Brian's Waste Recycling,Myrtle,Creech,(252) 239-0016,PO Box 460,Lucama,NC,27851,Wilson,Y,Y,Y,N,N,"10,000.00",10,0,35.59,-78.08
-8669020.93,4245539.944,2004/04/28 00:00:00+00,2013/09/30 00:00:00+00,2018/06/11 00:00:00+00,180,SDTF-98-08,NCS-00953,Island Septic,David,Newsome,(919) 242-3751,441 Buck Newsome Rd,Fremont,NC,27830,Wilson,Y,Y,Y,Y,Y,"110,000.00",0,0,35.60,-77.88
-8691585.391,4245210.008,2005/12/16 00:00:00+00,2015/10/15 00:00:00+00,2020/10/15 00:00:00+00,181,SDTF-98-09,NCS-00077,W2 Septic Pumping LLC,Myrtle,Creech,(252) 239-0016,8973 Kirby Rd,Kenly,NC,27542,Wilson,Y,Y,Y,N,N,"30,000.00",30,0,35.60,-78.08
-8669844.694,4274370.421,2008/04/28 00:00:00+00,2014/03/28 00:00:00+00,2019/03/28 00:00:00+00,182,SDTF-98-10,NCS-01110,Anderson Pumping Service,Charles,LaHay,(252) 245-0051,4624 West Langley Rd.,Elm City,NC,27822,Wilson,Y,N,Y,N,N,"3,500.00",0,0,35.81,-77.88
-8660394.783,4257973.879,2012/06/08 00:00:00+00,2014/10/06 00:00:00+00,2018/06/08 00:00:00+00,183,SDTF-98-11,NCS-01202,Lake James Family Campground & Benfield’s Harbor,Allen,Roberson,(252) 236-5725,6049 US 301 N.,Elm City,NC,27822,Wilson,N,Y,Y,Y,N,"153,000.00",0,0,35.69,-77.80
-9031525.06,4284410.617,1990/11/19 00:00:00+00,2017/09/22 00:00:00+00,2022/09/22 00:00:00+00,184,SLAS-02-04,NCS-00104,Myers Septic Tank Company,David R,Mecimore,(828) 632-4608,128 Taylorsville Mfg. Road,Taylorsville,NC,28681,Alexander,Y,Y,Y,N,N,205000,0,0,35.88,-81.13
-9028424.812,4301819.921,2000/09/06 00:00:00+00,2017/09/22 00:00:00+00,2022/02/08 00:00:00+00,185,SLAS-02-05,NCS-00320,Rowan Septic Tank & Ditching Co Inc,Warren,Miller,(828) 632-0788,80 West Main Ave,Taylorsville,NC,28681,Alexander,N,Y,Y,Y,N,265000,0,0,36.01,-81.10
-9009292.331,4377431.554,2010/08/31 00:00:00+00,2017/04/04 00:00:00+00,2022/04/04 00:00:00+00,186,SLAS-03-04,NCS-01188,A Sani-Can,Aaron,Robinson,(276) 236-6962,3572 Peppers Ferry Road,Wytheville,VA,24382,Alleghany,N,Y,Y,Y,N,1605000,0,0,36.56,-80.93
-8903087.971,4150218.396,2011/05/04 00:00:00+00,2014/06/26 00:00:00+00,2019/06/26 00:00:00+00,187,SLAS-04-08,NCS-01094,T-N-T Septic Service,Ronnie & Dayton,Oaks,(704) 848-8801,2323 Diggs Road,Wadesboro,NC,28170,Anson,Y,Y,Y,Y,N,855000,0,0,34.90,-79.98
-8580246.976,4251361.327,2000/09/05 00:00:00+00,2016/04/11 00:00:00+00,2021/04/11 00:00:00+00,188,SLAS-07-06,NCS-00826,Robinson's Septic Tank Cleaning,Scott,Williamson,(252) 944-7737,1774 Wharton Station Rd,Washington,NC,27889,Beaufort,Y,Y,Y,Y,N,400000,0,0,35.64,-77.08
-8777945.939,4095161.134,1993/07/22 00:00:00+00,2017/06/22 00:00:00+00,2021/06/08 00:00:00+00,189,SLAS-09-07,NCS-00153,Ray's Septic Service,Furnie,Singletary,(910) 648-2228,PO Box 782,Bladenboro,NC,28320,Bladen,N,Y,Y,Y,N,410000,0,0,34.49,-78.85
-8706904.066,4029498.938,1993/06/25 00:00:00+00,2016/06/02 00:00:00+00,2017/06/02 00:00:00+00,190,SLAS-10-13,NCS-00033,Garner Construction Company,Ryan,Hewett,(910) 842-6606,2166 Big Neck Road NW,Ash,NC,28420,Brunswick,N,Y,N,N,N,945000,0,0,34.01,-78.22
-8698820.045,4030855.284,2014/06/26 00:00:00+00,2015/12/16 00:00:00+00,2020/12/16 00:00:00+00,191,SLAS-10-21,NCS-00298,Garner Construction Company,Mary,Cook,(910) 253-4689,PO Box 8,Boliva,NC,28422,Brunswick,N,Y,Y,Y,N,165000,0,0,34.02,-78.14
-9071334.023,4250813.429,1998/08/25 00:00:00+00,2018/03/08 00:00:00+00,2023/03/08 00:00:00+00,192,SLAS-12-03,NCS-00928,Don Jordan's Septic Tank Cleaning & Portable Toilet Rental,T Regan,Hudson,(828) 874-5147,7204 Old Laurel Rd,Vale,NC,28168,Burke,Y,Y,Y,Y,N,2197100,0,0,35.64,-81.49
-9082626.272,4273787.053,1990/07/13 00:00:00+00,2014/02/27 00:00:00+00,2019/02/27 00:00:00+00,193,SLAS-12-05,NCS-00240,Creech's Septic & Grease Trap Cleaning,Darlene,Williams,(704) 728-7116,PO Box 546,Hudson,NC,28638,Burke,Y,Y,Y,N,N,325000,0,0,35.80,-81.59
-8479558.497,4351809.189,2003/07/25 00:00:00+00,2015/12/16 00:00:00+00,2019/04/01 00:00:00+00,194,SLAS-15-02,NCS-00914,Pearce Backhoe & Septic Tank Svc.,Joseph,Russell,(252) 202-9969,134 Bellcross Rd,Camden,NC,27921,Camden,N,Y,Y,Y,Y,505000,0,0,36.37,-76.17
-8466756.755,4347073.718,2011/11/08 00:00:00+00,2013/05/07 00:00:00+00,2017/01/01 00:00:00+00,195,SLAS-15-04,NCS-00242,Eastside Septic Cleaning Service,Glenn,Hines,(757) 482-7001,1828 Mount Pleasant Rd.,Chesapeake,VA,23322,Camden,N,Y,Y,N,Y,1690000,0,0,36.34,-76.06
-8553774.088,4131938.416,1991/08/07 00:00:00+00,2011/05/21 00:00:00+00,2016/05/11 00:00:00+00,196,SLAS-16-02,NCS-00049,Hardee's Septic Tank Service,W Keith,Garner,(252) 223-4019,5970 Hwy 70,Newport,NC,28570,Carteret,Y,Y,Y,N,N,930000,0,0,34.76,-76.84
-8560536.747,4137419.676,2005/04/26 00:00:00+00,2012/04/26 00:00:00+00,2016/08/28 00:00:00+00,197,SLAS-16-03,NCS-00207,TNT Services Inc.,Donald,Bryant,(252) 726-6761,123 Pete Rd,Newport,NC,28570,Carteret,N,Y,Y,N,N,375000,0,0,34.81,-76.90
-8565788.8,4135065.007,1993/04/30 00:00:00+00,2014/10/06 00:00:00+00,2018/04/15 00:00:00+00,198,SLAS-16-05,NCS-00207,Stallings Septic Service,Donald,Bryant,(252) 726-6761,123 Pete Rd,Newport,NC,28570,Carteret,N,Y,Y,N,N,200000,0,0,34.79,-76.95
-8563409.903,4137952.494,2001/09/07 00:00:00+00,2012/01/13 00:00:00+00,2017/01/13 00:00:00+00,199,SLAS-16-08,NCS-00049,A Pauls Septic Tank Service,Morgan and Keith,Garner,(252) 223-4019,5970 Hwy 70,Newport,NC,28570,Carteret,N,Y,Y,N,N,505000,0,0,34.81,-76.93
-9018402.718,4254820.566,1994/06/09 00:00:00+00,2016/01/16 00:00:00+00,2021/01/16 00:00:00+00,200,SLAS-18-01,NCS-00016,Taylorsville Precast Molds Inc.,Gary,Dellinger,(704) 483-5641,8151 Webbs Rd,Denver,NC,28037,Catawba,Y,Y,Y,Y,N,3283000,0,0,35.67,-81.01
-8796215.694,4249560.216,1994/08/12 00:00:00+00,2016/06/14 00:00:00+00,2019/09/07 00:00:00+00,201,SLAS-19-02,NCS-00636,Brinson & Miller Inc.,Damon W.,Woodall,(919) 577-1995,51 Buttonwood Court,Fuquay Varina,NC,27526,Chatham,N,N,Y,N,N,2275000,0,0,35.63,-79.02
-9082670.8,4216505.21,1992/06/05 00:00:00+00,2018/03/08 00:00:00+00,2022/10/01 00:00:00+00,202,SLAS-23-06,NCS-00576,Bennie A Moore Septic Tank Service Inc,Leonard,McSwain,(704) 482-1380,3020 Ramseur Church Rd,Shelby,NC,28150,Cleveland,N,Y,N,N,N,640000,0,0,35.39,-81.59
-9082911.25,4201060.646,1996/09/18 00:00:00+00,2014/05/15 00:00:00+00,2017/10/17 00:00:00+00,203,SLAS-23-10,NCS-00574,Bennie A Moore Septic Tank Service Inc,Kati,Beaver,(704) 487-9997,707 Poplar Springs Church Rd,Shelby,NC,28152,Cleveland,Y,Y,Y,Y,N,645000,0,0,35.27,-81.59
-9067510.198,4191394.742,1996/09/26 00:00:00+00,2014/07/02 00:00:00+00,2018/12/03 00:00:00+00,204,SLAS-23-11,NCS-00608,Mitchell's Septic Tank Cleaning Service Inc.,Trent,Rhea,(704) 739-5849,5030 Harmon Rd,Kings Mountain,NC,28086,Cleveland,N,Y,N,Y,N,100000,0,0,35.20,-81.45
-8758477.273,4043244.455,2006/05/08 00:00:00+00,2012/10/31 00:00:00+00,2017/05/18 00:00:00+00,205,SLAS-24-06,NCS-00735,Waste Management of Wilmington,James,Faulk,(910) 653-3672,13603 Swamp Fox Hwy East,Tabor City,NC,28463,Columbus,N,Y,Y,Y,N,450000,0,0,34.11,-78.68
-8761763.424,4061257.004,2008/04/28 00:00:00+00,2016/05/04 00:00:00+00,2020/05/04 00:00:00+00,206,SLAS-24-07,NCS-00984,Lentz Septic Tank Service,Ben,Harrelson,(910) 642-7431,5454 James B White Hwy S,Whiteville,NC,28472,Columbus,N,Y,Y,Y,N,440000,0,0,34.24,-78.71
-8766602.483,4048677.369,2017/08/08 00:00:00+00,2017/08/08 00:00:00+00,2018/08/08 00:00:00+00,207,SLAS-24-09,NCS-00282,Rouse Septic Tank Service,John (Jack),Turner,(910) 653-4810,714 Mollie Ironhill Rd.,Clarendon,NC,28432,Columbus,N,Y,Y,N,N,220800,0,0,34.15,-78.75
-8766508.974,4040254.77,2016/11/10 00:00:00+00,2017/08/30 00:00:00+00,2018/08/01 00:00:00+00,208,SLAS-24-10,NCS-01203,Rouse Septic Tank Service,John,Long,(910) 620-5645,PO Box 563,Shallotte,NC,28459,Columbus,N,Y,N,N,N,690000,0,0,34.09,-78.75
-8600790.988,4207170.937,2003/09/15 00:00:00+00,2015/07/27 00:00:00+00,2018/12/17 00:00:00+00,209,SLAS-25-08,NCS-00912,Hoffman Septic Tank Pumping,John W,Dunham,(252) 633-5334,2115 Hwy 55 West,New Bern,NC,28562,Craven,N,Y,Y,Y,Y,2613600,0,0,35.32,-77.26
-8592168.18,4197769.583,2005/02/08 00:00:00+00,2015/07/27 00:00:00+00,2018/12/17 00:00:00+00,210,SLAS-25-09,NCS-00912,B & B Concrete Products Inc,John W,Dunham,(252) 633-5334,2115 Hwy 55 West,New Bern,NC,28562,Craven,Y,Y,Y,Y,Y,851400,0,0,35.25,-77.18
-8600071.864,4203903.966,2006/05/22 00:00:00+00,2012/02/20 00:00:00+00,2017/02/02 00:00:00+00,211,SLAS-25-10,NCS-01000,Williams Septic Tank Service,Michael,Braxton,(252) 244-0713,9900 US Hwy 17 North,Vanceboro,NC,28586,Craven,N,Y,Y,Y,N,356500,0,0,35.29,-77.26
-8600743.121,4206273.276,2006/08/01 00:00:00+00,2013/03/21 00:00:00+00,2017/06/30 00:00:00+00,212,SLAS-25-11,NCS-00912,C. S. Hines Inc.,John W.,Dunham,(252) 633-5334,2115 Hwy 55 West,New Bern,NC,28562,Craven,N,Y,Y,Y,Y,1326600,0,0,35.31,-77.26
-8602477.478,4199235.035,2014/06/19 00:00:00+00,2016/05/04 00:00:00+00,2020/05/04 00:00:00+00,213,SLAS-25-12,NCS-01263,Matthews Septic Tank Service,Randy,Register,(252) 670-4031,117 Davis Rd.,Cove City,NC,28523,Craven,N,Y,N,N,N,585000,0,0,35.26,-77.28
-8616977.955,4209124.762,2016/09/30 00:00:00+00,2016/09/30 00:00:00+00,2017/09/30 00:00:00+00,214,SLAS-25-13,NCS-00912,Matthews Septic Tank Service,John W. (Billy),Dunham,(252) 633-5334,2115 Hwy 55 West,New Bern,NC,28562,Craven,N,Y,Y,Y,Y,5999400,0,0,35.33,-77.41
-8442990.044,4321863.987,1994/09/26 00:00:00+00,2014/07/23 00:00:00+00,2017/03/19 00:00:00+00,215,SLAS-27-06,NCS-00090,Brocks Septic Tank Service,Roy L.,Etheridge,(252) 261-3073,PO Box 296,Powells Point,NC,27966,Currituck,Y,Y,Y,Y,Y,195000,0,0,36.15,-75.84
-8460090.944,4351795.364,2008/05/30 00:00:00+00,2016/03/17 00:00:00+00,2020/05/28 00:00:00+00,216,SLAS-27-11,NCS-00210,Brocks Septic Tank Service,Paul,Hoffman,(252) 339-4900,110 Enterprise Dr,Elizabeth City,NC,27909,Currituck,N,Y,Y,Y,Y,740000,0,0,36.37,-76.00
-8447171.204,4327854.659,2011/01/07 00:00:00+00,2014/08/27 00:00:00+00,2019/04/01 00:00:00+00,217,SLAS-27-18,NCS-01151,Register's Septic Tank Pumping,J. Bryan,Smith,(252) 255-2030,PO Box 2560,Kitty Hawk,NC,27949,Currituck,N,Y,Y,Y,Y,1120000,0,0,36.20,-75.88
-8460069.793,4351348.82,2011/04/29 00:00:00+00,2012/06/28 00:00:00+00,2016/06/28 00:00:00+00,218,SLAS-27-19,NCS-01151,Hall's Septic Tank Cleaning Service,J. Bryan,Smith,(252) 255-2030,PO Box 2560,Kitty Hawk,NC,27949,Currituck,Y,Y,Y,Y,Y,1920000,0,0,36.37,-76.00
-8459995.209,4352499.089,2010/12/30 00:00:00+00,2014/08/27 00:00:00+00,2019/04/01 00:00:00+00,219,SLAS-27-20,NCS-01151,C & C Septic Tank Service,J. Bryan,Smith,(252) 255-2030,PO Box 2560,Kitty Hawk,NC,27949,Currituck,Y,Y,Y,Y,Y,2210000,0,0,36.38,-76.00
-8442562.577,4322889.778,2011/01/07 00:00:00+00,2016/02/26 00:00:00+00,2021/02/26 00:00:00+00,220,SLAS-27-21,NCS-01151,Haywood Jordans Septic Service,J. Bryan,Smith,(252) 255-2030,PO Box 2560,Kitty Hawk,NC,27949,Currituck,N,Y,Y,Y,Y,3970000,0,0,36.16,-75.84
-8442591.52,4322243.132,2017/05/19 00:00:00+00,2017/05/19 00:00:00+00,2018/05/19 00:00:00+00,221,SLAS-27-22,NCS-01151,Belton's Septic Tank Service,J. Bryan,Smith,(252) 255-2030,PO Box 2560,Kitty Hawk,NC,27949,Currituck,Y,Y,Y,Y,Y,605000,0,0,36.16,-75.84
-8442381.126,4321941.194,2017/06/23 00:00:00+00,2017/06/23 00:00:00+00,2018/06/23 00:00:00+00,222,SLAS-27-23,NCS-01377,S & S Septic Tank Pumping,Jonathan,Younts,(252) 489-3366,5150 Woods Road,Kitty Hawk,NC,27949,Currituck,N,Y,Y,Y,N,1000000,0,0,36.15,-75.84
-8682164.423,4179880.825,1996/02/15 00:00:00+00,2017/07/14 00:00:00+00,2018/03/22 00:00:00+00,223,SLAS-31-01,NCS-00254,S & B Maintenance LLC,Eldridge Ray,Brock,(919) 658-2832,2899 Summerlins Crossroads Rd,Mt Olive,NC,28365,Duplin,N,Y,Y,N,N,495000,0,0,35.12,-77.99
-8657601.777,4162069.798,2000/03/16 00:00:00+00,2015/04/16 00:00:00+00,2020/04/16 00:00:00+00,224,SLAS-31-10,NCS-00810,Cannons Septic Tank Service Inc.,Roy P.,Heath  Jr.,(910) 347-6181,4025 Richlands Hwy,Jacksonville,NC,28540,Duplin,N,Y,N,N,N,650000,0,0,34.99,-77.77
-8659512.019,4148215.211,2000/03/21 00:00:00+00,2013/02/06 00:00:00+00,2017/02/04 00:00:00+00,225,SLAS-31-11,NCS-00259,Cannons Septic Tank Service Inc.,Emmett,Hall,(910) 298-5750,297 Durwood Evans Rd,Beulaville,NC,28518,Duplin,Y,Y,N,N,N,200000,0,0,34.88,-77.79
-8689974.598,4152181.215,2003/11/14 00:00:00+00,2012/02/07 00:00:00+00,2016/03/30 00:00:00+00,226,SLAS-31-13,NCS-00256,Cannons Septic Tank Service Inc.,Kenneth W.,Register Jr.,(910) 293-4022,630 Penny Branch Rd.,Warsaw,NC,28398,Duplin,N,Y,Y,Y,N,600000,0,0,34.91,-78.06
-8800075.14,4154371.13,2007/07/20 00:00:00+00,2011/06/14 00:00:00+00,2016/06/13 00:00:00+00,227,SLAS-31-14,NCS-01046,Cannons Septic Tank Service Inc.,James A.,Dobson,(910) 296-4620,P.O. Box 64067,Fayetteville,NC,28306,Robeson,N,Y,Y,N,Y,208000,0,0,34.93,-79.05
-8865072.365,4337753.995,2010/03/03 00:00:00+00,2014/07/23 00:00:00+00,2017/07/23 00:00:00+00,228,SLAS-31-16,NCS-01046,Cheek Environmental,James A.,Dobson,(910) 296-4620,149 Penn Rd,Reidsville,NC,27320,Rockingham,N,Y,Y,Y,Y,325000,0,0,36.27,-79.64
-8907703.277,4356610.37,2001/11/19 00:00:00+00,2012/02/07 00:00:00+00,2015/02/07 00:00:00+00,229,SLAS-33-04,NCS-00831,Millers Septic Service,Lonnie,House,(252) 813-7038,191 Percy Lane,Mayodan,NC,27027,Rockingham,N,Y,N,Y,N,105000,0,0,36.41,-80.02
-8904865.743,4363630.703,2003/08/04 00:00:00+00,2017/02/16 00:00:00+00,2022/02/16 00:00:00+00,230,SLAS-33-05,NCS-00246,Pearce Concrete,Curtis L,Matthews Jr.,(252) 714-7890,191 Percy Lane,Mayodan,NC,27027,Rockingham,Y,Y,N,N,N,280000,0,0,36.46,-79.99
-8864668.275,4340525.449,2005/11/01 00:00:00+00,2012/06/27 00:00:00+00,2016/10/11 00:00:00+00,231,SLAS-33-06,NCS-00470,Powell's Septic Tank Service,Blake,Boswell,(252) 977-9384,149 Penn Road,Reidsville,NC,27320,Rockingham,Y,Y,Y,Y,N,350000,0,0,36.29,-79.63
-8970142.379,4256118.234,1991/10/28 00:00:00+00,2014/08/28 00:00:00+00,2019/08/28 00:00:00+00,232,SLAS-35-01,NCS-00347,Roberts Septic Tank Cleaners,Denise R.,Roberts,(919) 494-2914,1882 Briggs Rd,Salisbury,NC,28147,Rowan,N,Y,N,N,N,685000,0,0,35.68,-80.58
-8960616.77,4265752.102,2008/05/23 00:00:00+00,2016/06/14 00:00:00+00,2018/04/01 00:00:00+00,233,SLAS-35-05,NCS-00858,Parks Septic Tank Cleaning Service,Keith,Clemons,(919) 872-2202,7351 Old Mocksville Rd,Salisbury,NC,28144,Rowan,N,Y,Y,N,N,255000,0,0,35.75,-80.49
-9100990.648,4202511.534,2008/09/13 00:00:00+00,2016/06/14 00:00:00+00,2019/04/01 00:00:00+00,234,SLAS-35-06,NCS-01127,Cooper Septic Tank Service LLC,Ryan Shane,Brantley,(252) 478-3721,1356 Racepath Church Road,Mooresboro,NC,28114,Rutherford,N,Y,Y,Y,Y,1020400,0,0,35.28,-81.76
-8729844.787,4159363.519,2009/02/24 00:00:00+00,2016/06/14 00:00:00+00,2021/06/14 00:00:00+00,235,SLAS-35-07,NCS-01127,Cooper Septic Tank Service LLC,Ryan Shane,Brantley,(252) 478-3721,1366 Bass Lake Rd,Roseboro,NC,28382,Sampson,Y,Y,Y,Y,Y,2025400,0,0,34.97,-78.42
-8721569.296,4173607.399,2017/08/03 00:00:00+00,2017/08/03 00:00:00+00,2018/08/03 00:00:00+00,236,SLAS-35-10,NCS-01317,Billingsley Septic Tank Co.,Marlon,Lewis,(919) 818-4342,221 Beulah Rd,Clinton,NC,28328,Sampson,N,Y,Y,N,N,475000,0,0,35.07,-78.35
-8725220.575,4185670.328,1992/11/20 00:00:00+00,2016/02/23 00:00:00+00,2021/02/23 00:00:00+00,237,SLAS-36-04,NCS-01373,Billingsley Septic Tank Co.,Jim,Lanier,(704) 263-8186,260 Beulah Rd,Clinton,NC,28328,Sampson,N,Y,Y,N,N,8375400,0,0,35.16,-78.38
-8838684.079,4161871.424,2004/09/27 00:00:00+00,2014/08/28 00:00:00+00,2019/08/28 00:00:00+00,238,SLAS-36-10,NCS-00868,Gann Brothers Septic Tank Service Inc.,Dennis,Willis,(704) 435-2326,31149 Hill Creek Road,Wagram,NC,28396,Scotland,N,Y,Y,N,N,1335000,0,0,34.99,-79.40
-8933051.838,4367884.706,1999/02/05 00:00:00+00,2017/02/16 00:00:00+00,2021/01/01 00:00:00+00,239,SLAS-40-03,NCS-00739,Gann Brothers Septic Tank Service Inc.,Billy Ray,Heath,(252) 747-1900,2984 NC 8 Hwy. N,Danbury,NC,27016,Stokes,N,Y,N,Y,N,620000,0,0,36.49,-80.25
-8915259.764,4373266.607,1991/09/03 00:00:00+00,2017/10/05 00:00:00+00,2020/12/01 00:00:00+00,240,SLAS-42-04,NCS-00336,Hoke Septic Service Inc,AM,Powell,(252) 537-2450,1395 Hwy 704 E,Lawsonville,NC,27022,Stokes,N,Y,N,N,N,230000,0,0,36.53,-80.09
-8732428.512,4332480.947,1991/02/28 00:00:00+00,2015/12/16 00:00:00+00,2020/01/01 00:00:00+00,241,SLAS-42-05,NCS-00334,Jeff Lawson Septic Tank & Pumping Service,James H,Pearce,(252) 537-2410,712 N. Chavis Road,Kittrell,NC,27544,Vance,N,Y,Y,N,N,540000,0,0,36.23,-78.44
-8749798.806,4252343.503,2003/01/17 00:00:00+00,2014/08/28 00:00:00+00,2019/01/01 00:00:00+00,242,SLAS-47-02,NCS-00421,Wesson Septic Tank Service Inc,James,Locklear,(910) 875-4748,1018 Hwy 70 W,Garner,NC,27529,Wake,N,Y,Y,Y,N,1045000,0,0,35.65,-78.60
-8735585.533,4289863.752,1993/07/22 00:00:00+00,2014/07/02 00:00:00+00,2018/12/16 00:00:00+00,243,SLAS-49-02,NCS-00147,Leonard McSwain Septic Tank,Keith,Lentz,(704) 876-1834,5008 Rogers Rd,Rolesville,NC,27571,Wake,Y,Y,Y,N,N,2250000,0,0,35.92,-78.47
-8748803.609,4248492.016,2010/03/02 00:00:00+00,2016/06/14 00:00:00+00,2021/06/14 00:00:00+00,244,SLAS-55-01,NCS-00805,Rhea's Septic Tank,Dennis,Hoyle,(704) 276-2080,7132 Hidden Valley Trail,Garner,NC,27529,Wake,N,Y,Y,Y,N,430500,0,0,35.62,-78.59
-8662149.178,4216473.805,2017/04/26 00:00:00+00,2017/04/26 00:00:00+00,2018/04/26 00:00:00+00,245,SLAS-57-04,NCS-00220,Robersonville Ice & Coal Inc.,Nelson,Bates,(828) 524-6483,798 Parkstown Rd,LaGrange,NC,28551,Wayne,N,Y,Y,Y,N,885000,0,0,35.39,-77.81
-8702140.705,4205667.601,1991/02/28 00:00:00+00,2016/08/05 00:00:00+00,2021/08/05 00:00:00+00,246,SLAS-59-02,NCS-00107,East Coast Resources,Russ,Ayers,(252) 792-5978,294 Bennett Road,Goldsboro,NC,27530,Wayne,Y,Y,Y,Y,Y,3154000,0,0,35.31,-78.17
-8677855.245,4223154.167,1991/10/04 00:00:00+00,2014/07/30 00:00:00+00,2019/07/30 00:00:00+00,247,SLAS-59-03,NCS-00611,Bogue Sound Septic & Grading Inc,C Morton,Hurst,(252) 795-4782,179 Combs Rd,Goldsboro,NC,27530,Wayne,N,Y,Y,Y,N,295000,0,0,35.44,-77.95
-8678774.744,4200468.892,2005/09/06 00:00:00+00,2017/02/21 00:00:00+00,2021/08/05 00:00:00+00,248,SLAS-59-05,NCS-00107,Don Locklear Septic Tank Cleaning,Russ,Ayers,(252) 792-5978,2899 Summerlins Crossroads Rd,Mt. Olive,NC,28365,Wayne,N,Y,Y,Y,Y,1840000,0,0,35.27,-77.96
-8677043.726,4152463.585,2007/03/09 00:00:00+00,2012/10/12 00:00:00+00,2015/10/12 00:00:00+00,249,SLAS-59-06,NCS-01058,Harris Septic Tank Service,Brent,Roberson,(252) 792-4155,278 Graham Dobson Rd.,Magnolia,NC,28453,Duplin,N,Y,Y,Y,Y,495000,0,0,34.92,-77.95
-8674707.13,4143150.494,1991/10/04 00:00:00+00,2013/01/30 00:00:00+00,2017/08/25 00:00:00+00,250,SLAS-67-03,NCS-00645,Atlantic All Pro Septic Tank Service Inc.,Richard G,Taylor,(252) 393-6426,278 Graham Dobson Rd.,Magnolia,NC,28453,Duplin,N,Y,N,N,N,245000,0,0,34.85,-77.93
-8639523.492,4274474.744,1997/07/11 00:00:00+00,2016/04/11 00:00:00+00,2017/01/01 00:00:00+00,251,SLAS-67-05,NCS-00727,PVI Enterprises,Linda,Melville,(910) 743-2266,PO Box 388,Farmville,NC,27828,Edgecombe,Y,Y,Y,Y,N,3510000,0,0,35.81,-77.61
-8641212.208,4262783.028,1993/03/29 00:00:00+00,2016/02/11 00:00:00+00,2016/10/17 00:00:00+00,252,SLAS-67-09,NCS-01182,Billy Heath Septic Tank Service,Tom,Balaker,(910) 347-2424,PO Box 233,Farmville,NC,27828,Edgecombe,N,Y,Y,Y,N,435000,0,0,35.72,-77.63
-8653492.974,4286812.518,1995/12/21 00:00:00+00,2016/02/11 00:00:00+00,2019/03/10 00:00:00+00,253,SLAS-67-10,NCS-01182,E-Z Flow Septic Tanks,Tom,Balaker,(910) 347-2424,PO Box 236,Sharpsburg,NC,27878,Edgecombe,Y,Y,Y,Y,N,450000,0,0,35.90,-77.74
-8729027.702,4317067.224,2001/01/24 00:00:00+00,2016/02/26 00:00:00+00,2018/02/26 00:00:00+00,254,SLAS-67-11,NCS-00038,K. T. Moore Septic Tank Service,Ray A,Zamora Sr,(910) 347-7867,431 South Cheatham Street,Franklinton,NC,27525,Franklin,Y,Y,Y,N,N,970000,0,0,36.12,-78.41
-8724881.051,4300467.263,2002/06/03 00:00:00+00,2016/04/12 00:00:00+00,2019/12/31 00:00:00+00,255,SLAS-67-12,NCS-00022,Marshall Cummings Septic Tank Service,Jody L,Thompson,(910) 327-2556,3008 Dawnbrook Drive,Raleigh,NC,27604,Franklin,N,Y,Y,Y,Y,590000,0,0,36.00,-78.38
-8712999.921,4289535.222,2012/11/28 00:00:00+00,2014/03/28 00:00:00+00,2019/03/28 00:00:00+00,256,SLAS-67-16,NCS-01232,Dennis Hoyle Services Septic Tank Pumping & Porta-Jon Rentals,Ronald Haywood,Pittman II,(910) 330-2784,37 Pine Ridge Road,Zebulon,NC,27597,Franklin,N,Y,Y,Y,N,305000,0,0,35.92,-78.27
-8711096.358,4290654.188,1992/03/13 00:00:00+00,2012/04/26 00:00:00+00,2017/04/23 00:00:00+00,257,SLAS-70-01,NCS-00106,Roy Heath Septic Tank Service,Edward W,Brinson,(252) 335-7774,37 Pine Ridge Rd,Zebulon,NC,27597,Franklin,N,Y,Y,Y,N,300000,0,0,35.93,-78.25
-8725192.745,4300443.871,2011/12/22 00:00:00+00,2014/03/05 00:00:00+00,2018/02/20 00:00:00+00,258,SLAS-71-08,NCS-01222,Parks Portable Toilets Inc,Wesley,Wooten,(910) 283-9823,186 EF Cottrell Road,Louisburg,NC,27549,Franklin,N,Y,Y,Y,N,1295000,0,0,36.00,-78.38
-9035661.692,4213003.42,1992/11/05 00:00:00+00,2017/02/16 00:00:00+00,2022/02/16 00:00:00+00,259,SLAS-74-06,NCS-00246,Dennis Willis Septic Service,Curtis L,Matthews Jr,(252) 714-7890,P.O. Box 184,Stanley,NC,28164,Gaston,Y,Y,N,N,N,325000,0,0,35.36,-81.17
-9050743.257,4218208.042,2007/10/19 00:00:00+00,2012/03/15 00:00:00+00,2017/03/15 00:00:00+00,260,SLAS-74-08,NCS-00314,Craven Ag Services Inc,Al,Cannon,(252) 524-4282,P.O. Box 86,Cherryville,NC,28021,Gaston,N,Y,Y,Y,Y,785000,0,0,35.40,-81.30
-8611652.431,4215614.981,2001/08/07 00:00:00+00,2014/02/11 00:00:00+00,2018/12/21 00:00:00+00,261,SLAS-74-13,NCS-00314,Craven Ag Services Inc,Al,Cannon,(252) 823-3600,PO Box 65,Grifton,NC,28530,Pitt,N,Y,Y,Y,Y,885000,0,0,35.38,-77.36
-8634957.166,4224737.78,2002/11/21 00:00:00+00,2014/02/10 00:00:00+00,2017/12/21 00:00:00+00,262,SLAS-74-15,NCS-00314,Craven Ag Services Inc,Al,Cannon,(252) 524-4282,3434 Hwy 55 W,Kinston,NC,28504,Greene,N,Y,Y,Y,Y,440000,0,0,35.45,-77.57
-8648764.123,4356910.515,2007/03/30 00:00:00+00,2014/02/11 00:00:00+00,2018/03/30 00:00:00+00,263,SLAS-74-17,NCS-00314,Craven Ag Services Inc,Al,Cannon,(252) 524-4282,PO BOX 395,Roanoke Rapids,NC,27870,Halifax,N,Y,Y,Y,Y,175000,0,0,36.41,-77.69
-8654001.705,4355342.108,2013/05/22 00:00:00+00,2013/05/22 00:00:00+00,2014/05/22 00:00:00+00,264,SLAS-74-18,NCS-01074,Albemarle Septic Service,Jamey,Way,(252) 823-3600,5795 Hwy 903,Roanoke Rapids,NC,27870,Halifax,N,Y,Y,N,N,545000,0,0,36.40,-77.74
-8824775.822,4154449.883,1990/09/04 00:00:00+00,2016/03/31 00:00:00+00,2021/03/31 00:00:00+00,265,SLAS-76-05,NCS-00319,Regan Hudson Farm,Randy,Cheek,(336) 879-3764,2517 North Duffie Road,Red Springs,NC,28377,Hoke,Y,Y,Y,Y,N,344000,0,0,34.93,-79.27
-9064057.068,4236551.702,1999/08/19 00:00:00+00,2014/02/27 00:00:00+00,2018/08/15 00:00:00+00,266,SLAS-78-18,NCS-00794,D & D Organic Farming LLC (DBA Royal Thrones Lavatories),Marshall,Cummings,(910) 737-6310,PO Box 84,Vale,NC,28168,Lincoln,N,Y,Y,N,Y,600000,0,0,35.53,-81.42
-9281558.655,4177372.934,2005/01/03 00:00:00+00,2016/03/31 00:00:00+00,2021/03/31 00:00:00+00,267,SLAS-78-19,NCS-00691,Ben Harrelson DBA Rudolph Inman Septic Tank Service,Rachel,Locklear,(910) 671-0563,1687 Georgia Road,Franklin,NC,28734,Macon,Y,Y,Y,Y,N,735000,0,0,35.10,-83.38
-8582101.559,4271827.164,2016/01/08 00:00:00+00,2017/07/14 00:00:00+00,2022/07/14 00:00:00+00,268,SLAS-78-20,NCS-00394,Braxton Septic Tank Service,Emily & Randall,Cooper,(910) 369-2713,4294 US Hwy 17 South,Williamston,NC,27892,Martin,Y,Y,Y,N,N,1100000,0,0,35.79,-77.09
-8605259.352,4279876.208,2017/05/04 00:00:00+00,2017/05/04 00:00:00+00,2018/05/04 00:00:00+00,269,SLAS-78-21,NCS-01307,Dobson Septic Tank Pumping Service,Jimmie,Carter,(910) 816-4805,PO Box 106,Robersonville,NC,27871,Martin,N,Y,N,N,N,145000,0,0,35.85,-77.30
-8583234.791,4280230.541,2017/08/18 00:00:00+00,2017/08/18 00:00:00+00,2018/08/18 00:00:00+00,270,SLAS-78-22,NCS-01376,Dobson Septic Tank Pumping Service,Cody,Hunt,(910) 738-5311,1150 Eli Bowen Road,Williamston,NC,27892,Martin,N,Y,Y,Y,N,5524200,0,0,35.85,-77.10
-8581343.473,4271426.446,2017/11/07 00:00:00+00,2017/11/07 00:00:00+00,2018/11/07 00:00:00+00,271,SLAS-78-23,NCS-00280,Roberson Septic LLC,Frankie,Jones,(910) 425-8876,PO Box 1596,Willimaston,NC,27892,Martin,Y,Y,N,N,N,650000,0,0,35.79,-77.09
-8594230.93,4125762.341,1990/10/16 00:00:00+00,2014/03/18 00:00:00+00,2019/03/18 00:00:00+00,272,SLAS-79-02,NCS-00397,Tarboro Septic Tank NC LLC,T Wayne,Billingsley,(336) 342-0608,325 Barrington Ridge,Newport,NC,28570,Onslow,N,Y,Y,N,N,1508500,0,0,34.72,-77.20
-8596153.418,4139228.377,1990/07/13 00:00:00+00,2018/03/08 00:00:00+00,2023/03/08 00:00:00+00,273,SLAS-79-04,NCS-00404,L&L Environmental Services LLC,Patrick,Gann,(336) 548-2971,2032 Belgrade - Swansboro Rd,Maysville,NC,28555,Onslow,Y,Y,Y,N,N,570000,0,0,34.82,-77.22
-8627306.177,4141771.086,2010/10/13 00:00:00+00,2017/09/22 00:00:00+00,2022/09/22 00:00:00+00,274,SLAS-79-05,NCS-00404,David Brantley & Sons Inc.,Patrick & Eric,Gann,(336) 548-2971,5680 Richlands Hwy,Jacksonville,NC,28540,Onslow,N,Y,Y,N,N,345000,0,0,34.84,-77.50
-8630214.956,4141589.348,2012/01/24 00:00:00+00,2018/05/02 00:00:00+00,2021/04/09 00:00:00+00,275,SLAS-79-06,NCS-00397,David Brantley & Sons Inc.,Wayne,Billingsley,(336) 342-0608,5680 Richlands Hwy,Jacksonville,NC,28540,Onslow,N,Y,Y,N,N,525000,0,0,34.84,-77.53
-8635177.579,4144642.671,1990/10/25 00:00:00+00,2015/12/16 00:00:00+00,2020/08/01 00:00:00+00,276,SLAS-80-01,NCS-00007,B & M Septic Tank Inc.,Benny,Myers,(704) 633-3962,1142 Gould Rd,Jacksonville,NC,28540,Onslow,Y,Y,Y,Y,Y,320000,0,0,34.86,-77.57
-8618339.392,4103540.925,1990/09/25 00:00:00+00,2016/01/16 00:00:00+00,2021/01/16 00:00:00+00,277,SLAS-80-02,NCS-00008,Atlantic Sewage Control,George,Kirkpatrick,(704) 202-5045,PO Box 1005,Sneads Ferry,NC,28460,Onslow,N,Y,Y,Y,N,945000,0,0,34.55,-77.42
-8639062.629,4149705.351,1996/07/31 00:00:00+00,2017/04/26 00:00:00+00,2022/04/26 00:00:00+00,278,SLAS-81-05,NCS-00703,Atlantic Sewage Control,Thomas & Phillip,Harris,(828) 453-0548,1003 Gregory Fork Rd.,Richlands,NC,28574,Onslow,Y,Y,Y,Y,N,1205000,0,0,34.90,-77.61
-8488203.568,4350295.436,1996/02/22 00:00:00+00,2017/02/16 00:00:00+00,2022/02/16 00:00:00+00,279,SLAS-82-14,NCS-00271,Atlantic Sewage Control,Wayne,Cannady,(910) 564-6207,1731 N Rd St,Elizabeth City,NC,27909,Pasquotank,Y,Y,Y,Y,N,645000,0,0,36.36,-76.25
-8688895.912,4106786.697,1999/12/29 00:00:00+00,2017/09/20 00:00:00+00,2021/01/01 00:00:00+00,280,SLAS-82-18,NCS-00273,Atlantic Sewage Control,Brenda,Jordan,(910) 592-6630,8155 Malpass Corner Rd.,Currie,NC,28435,Pender,N,Y,Y,N,N,96900,0,0,34.58,-78.05
-8631748.938,4240182.787,2003/06/10 00:00:00+00,2016/03/17 00:00:00+00,2019/03/16 00:00:00+00,281,SLAS-82-19,NCS-00076,Atlantic Sewage Control,Donald R,Jordan,(910) 592-8791,PO Box 233,Farmville,NC,27828,Pitt,Y,Y,Y,Y,N,147000,0,0,35.56,-77.54
-8610906.59,4212240.409,2010/03/16 00:00:00+00,2017/03/27 00:00:00+00,2019/01/20 00:00:00+00,282,SLAS-83-03,NCS-00100,Blu Site Solutions of North Carolina Inc.,Dale,Jones,(910) 281-5895,PO Box 65,Grifton,NC,28530,Pitt,Y,Y,Y,N,N,305000,0,0,35.36,-77.35
-8611652.431,4215614.981,2015/07/30 00:00:00+00,2017/07/07 00:00:00+00,2022/07/07 00:00:00+00,283,SLAS-83-04,NCS-00394,Blu Site Solutions of North Carolina Inc.,Emily & Randall,Cooper,(910) 369-2713,PO Box 65,Grifton,NC,28530,Pitt,Y,Y,Y,N,N,280000,0,0,35.38,-77.36
-8610345.54,4215168.528,1990/09/25 00:00:00+00,2017/09/22 00:00:00+00,2022/01/02 00:00:00+00,284,SLAS-85-06,NCS-00457,Haynes,Jeff,Lawson,(336) 593-2746,PO Box 65,Grifton,NC,28530,Pitt,N,Y,N,N,N,180000,0,0,35.38,-77.35
-8610697.309,4214902.303,2010/01/29 00:00:00+00,2011/05/12 00:00:00+00,2016/05/12 00:00:00+00,285,SLAS-85-11,NCS-01138,Roberson Septic Service,Joshua,Branscome,(336) 403-2791,PO Box 65,Grifton,NC,28530,Pitt,N,Y,Y,Y,N,585000,0,0,35.37,-77.35
-8624346.192,4269782.559,1998/08/21 00:00:00+00,2014/12/31 00:00:00+00,2019/12/31 00:00:00+00,286,SLAS-91-04,NCS-00758,Klean Latrine Septic Pumping,Michael  & Stephen,Dickerson,(252) 438-6023,211 Barrington Dr.,Tarboro,NC,27886,Pitt,N,Y,N,N,N,440000,0,0,35.78,-77.47
-8857733.071,4249408.197,1992/05/22 00:00:00+00,2018/05/02 00:00:00+00,2023/05/02 00:00:00+00,287,SLAS-92-01,NCS-00085,Lewis Farms,Bobby C,Raynor,(919) 606-0604,7748 Lanes Mill Rd,Bennet,NC,27208,Randolph,Y,Y,Y,N,N,1610750,0,0,35.63,-79.57
-8830647.925,4129255.692,1991/08/22 00:00:00+00,2013/07/25 00:00:00+00,2018/07/25 00:00:00+00,288,SLAS-92-03,NCS-00084,Lewis Farms,Frank C,Pearce,(919) 556-5018,PO Box 717,Maxton,NC,28364,Robeson,Y,Y,N,N,N,775000,0,0,34.74,-79.33
-8799271.414,4139867.051,1990/05/21 00:00:00+00,2017/04/26 00:00:00+00,2020/10/04 00:00:00+00,289,SLAS-92-07,NCS-00093,Lewis Farms,Bobby Ray,Stallings,(919) 779-1074,1234 W McDuffie Creek Rd,St Pauls,NC,28384,Robeson,N,Y,Y,N,N,675000,0,0,34.82,-79.05
-8776060.187,4121296.665,1999/01/08 00:00:00+00,2012/04/26 00:00:00+00,2017/03/15 00:00:00+00,290,SLAS-96-05,NCS-00393,Alliwood Septic Service,Chris,Parks,(919) 778-0264,2161 Evergreen Church Road,Pembroke,NC,28372,Robeson,N,Y,Y,Y,N,580000,0,0,34.69,-78.84
-8832760.769,4140673.921,2000/11/07 00:00:00+00,2010/08/18 00:00:00+00,2015/08/18 00:00:00+00,291,SLAS-96-07,NCS-00752,Coastal Farms and Residuals LLC,Reed,Bennett,(919) 689-2974,P.O. Box 645,Wagram,NC,28396,Robeson,Y,Y,Y,Y,Y,380000,0,0,34.83,-79.35
-8778347.802,4120453.288,2003/09/29 00:00:00+00,2016/06/14 00:00:00+00,2021/06/14 00:00:00+00,292,SLAS-96-09,NCS-00825,R & D Septic Tank Pumping,Bonnie,Parks,(919) 735-9402,2337 Smith Mill Road,Lumberton,NC,28358,Robeson,Y,N,N,Y,N,255000,0,0,34.68,-78.86
-8798554.516,4123977.482,2010/03/02 00:00:00+00,2017/07/14 00:00:00+00,2017/12/31 00:00:00+00,293,SLAS-96-11,NCS-00254,Quality Septic LLC,Eldridge R.,Brock,(919) 658-2832,P.O. Box 390,Lumberton,NC,29359,Robeson,N,Y,Y,N,N,405000,0,0,34.71,-79.04
-8661184.038,4253579.224,1992/09/10 00:00:00+00,2016/02/26 00:00:00+00,2017/02/26 00:00:00+00,294,SLAS-98-01,NCS-00115,Victory Septic Solutions,Rosalee Mitchell,Maurice Mitchell,(252) 243-2226,6522 Speight School Rd,Wilson,NC,27893,Wilson,N,Y,Y,N,N,655000,0,0,35.66,-77.80
-8691259.225,4245126.499,1998/08/25 00:00:00+00,2017/09/20 00:00:00+00,2022/09/20 00:00:00+00,295,SLAS-98-07,NCS-00077,WRE Earth Farms LLC DBA Stanley Environmental Solutions,Myrtle,Creech,(252) 239-0016,8973 Kirby Road,Kenly,NC,27542,Wilson,Y,Y,Y,N,N,1470000,0,0,35.60,-78.07
-8669374.926,4245548.159,2004/04/28 00:00:00+00,2011/05/12 00:00:00+00,2016/05/11 00:00:00+00,296,SLAS-98-08,NCS-00953,Enviro-Choice Recycling LLC DBA Brian's Waste Recycling,David,Newsome,(919) 242-3751,441 Buck Newsome Rd,Fremont,NC,27830,Wilson,Y,Y,Y,Y,Y,5781600,0,0,35.60,-77.88
-8660314.633,4258304.201,2012/06/27 00:00:00+00,2014/10/06 00:00:00+00,2018/06/08 00:00:00+00,297,SLAS-98-11,NCS-01202,Island Septic,Allen,Roberson,(252) 236-5725,6049 US 301 N.,Elm City,NC,27822,Wilson,N,Y,Y,Y,N,1150000,0,0,35.69,-77.80
